,PLAT,NET,NAME,REPTYPE,LAT,LON,CLIMATE SUMMARY,AVAILABILITY,STATION OPS,OP MODE,TYPE,MOVING
0,RKSG,ICAO,A 511 / DESIDERIO AAF-PYEONGTAEK / CAMP HUMPHREYS ROK,METAR,36.9666666,127.03333329999998,JMCLIM,DATA AVAILABLE,FULL TIME,PRIMARY AUGMENTED,SFC_OBS,1
1,LECO,ICAO,A CORUNA,METAR,43.302061,-8.377256,UNAVAILABLE,DATA AVAILABLE,FULL TIME,UNKNOWN,SFC_OBS,1
2,KOCH,ICAO,A L MANGHAM JR RGNL,METAR,31.578028000000003,-94.709542,LEGACY_OCDS,DATA AVAILABLE,FULL TIME,PRIMARY AUTO,SFC_OBS,1
3,EHAK,ICAO,A12-CPP HELIPAD OIL PLATFORM,METAR,55.4166666,3.8166666,UNAVAILABLE,DATA AVAILABLE,FULL TIME,PRIMARY AUTO,SFC_OBS,1
4,EKAH,ICAO,AARHUS,METAR,56.300017,10.619008,JMCLIM,DATA AVAILABLE,FULL TIME,PRIMARY AUTO,SFC_OBS,1
5,OIAA,ICAO,ABADAN,METAR,30.371111,48.228333,JMCLIM,DATA AVAILABLE,FULL TIME,UNKNOWN,SFC_OBS,1
6,OISA,ICAO,ABADEH,METAR,31.1833333,52.6666667,LIMCLIM,DATA LIMITED,PART TIME,UNKNOWN,SFC_OBS,1
7,UNAA,ICAO,ABAKAN,METAR,53.74,91.385,JMCLIM,DATA AVAILABLE,FULL TIME,UNKNOWN,SFC_OBS,1
8,CYXX,ICAO,ABBOTSFORD,METAR,49.025278,-122.363333,LEGACY_OCDS,DATA AVAILABLE,FULL TIME,UNKNOWN,SFC_OBS,1
9,FTTC,ICAO,ABECHE,METAR,13.847,20.844333,LEGACY_OCDS,DATA INCOMPLETE,PART TIME,UNKNOWN,SFC_OBS,1
10,MUSC,ICAO,ABEL SANTAMARIA,METAR,22.492192000000003,-79.943611,UNAVAILABLE,DATA AVAILABLE,FULL TIME,UNKNOWN,SFC_OBS,1
11,KABR,ICAO,ABERDEEN RGNL,METAR,45.449056,-98.421833,JMCLIM,DATA AVAILABLE,FULL TIME,PRIMARY AUTO,SFC_OBS,1
12,KGZS,ICAO,ABERNATHY FLD,METAR,35.153708,-87.056825,UNAVAILABLE,DATA AVAILABLE,FULL TIME,PRIMARY AUTO,SFC_OBS,1
13,OEAB,ICAO,ABHA,METAR,18.240367000000003,42.656625,JMCLIM,DATA AVAILABLE,FULL TIME,UNKNOWN,SFC_OBS,1
14,DIAP,ICAO,ABIDJAN FELIX HOUPHOUET BOIGNY INTL,METAR,5.261386,-3.926294,JMCLIM,DATA AVAILABLE,FULL TIME,UNKNOWN,SFC_OBS,1
15,KABI,ICAO,ABILENE RGNL,METAR,32.411319,-99.681897,JMCLIM,DATA AVAILABLE,FULL TIME,UNKNOWN,SFC_OBS,1
16,MMCS,ICAO,ABRAHAM GONZALEZ INTL,METAR,31.636133,-106.428667,LEGACY_OCDS,DATA LIMITED,PART TIME,UNKNOWN,SFC_OBS,1
17,KSPI,ICAO,ABRAHAM LINCOLN CAPITAL,METAR,39.8441,-89.67788900000001,JMCLIM,DATA AVAILABLE,FULL TIME,UNKNOWN,SFC_OBS,1
18,OMAA,ICAO,ABU DHABI INTL,METAR,24.432972,54.651138,JMCLIM,DATA LIMITED,FULL TIME,UNKNOWN,SFC_OBS,1
19,HEBL,ICAO,ABU SIMBEL,METAR,22.375953,31.611722,LIMCLIM,DATA LIMITED,FULL TIME,UNKNOWN,SFC_OBS,1
20,OIBA,ICAO,ABUMUSA ISLAND,METAR,25.875742,55.032994,JMCLIM,DATA LIMITED,PART TIME,UNKNOWN,SFC_OBS,1
21,KARA,ICAO,ACADIANA RGNL,METAR,30.037758,-91.883896,UNAVAILABLE,DATA AVAILABLE,FULL TIME,UNKNOWN,SFC_OBS,1
22,MSAC,ICAO,ACAJUTLA/SONSONATE,METAR,13.5666667,-89.83333329999999,LEGACY_OCDS,DATA LIMITED,PART TIME,UNKNOWN,SFC_OBS,1
23,KMFV,ICAO,ACCOMACK CO,METAR,37.646889,-75.76105600000001,LEGACY_OCDS,DATA AVAILABLE,FULL TIME,PRIMARY AUTO,SFC_OBS,1
24,SCMK,ICAO,AD MELINKA,METAR,-43.89389,-73.739723,UNAVAILABLE,NEW SITE,PART TIME,UNKNOWN,SFC_OBS,1
25,KADH,ICAO,ADA MUNI,METAR,34.804342,-96.671278,LEGACY_OCDS,DATA AVAILABLE,FULL TIME,PRIMARY AUTO,SFC_OBS,1
26,PADK,ICAO,ADAK,METAR,51.877964,-176.646031,JMCLIM,DATA AVAILABLE,FULL TIME,PRIMARY AUTO,SFC_OBS,1
27,KLIT,ICAO,ADAMS FLD,METAR,34.729444,-92.224306,LEGACY_OCDS,DATA AVAILABLE,FULL TIME,UNKNOWN,SFC_OBS,1
28,LTAF,ICAO,ADANA,METAR,36.982166,35.280388,JMCLIM,DATA AVAILABLE,FULL TIME,UNKNOWN,SFC_OBS,1
29,KEKX,ICAO,ADDINGTON FLD,METAR,37.686,-85.925028,UNAVAILABLE,DATA AVAILABLE,FULL TIME,PRIMARY AUTO,SFC_OBS,1
30,KADS,ICAO,ADDISON,METAR,32.968558,-96.836447,LEGACY_OCDS,DATA AVAILABLE,FULL TIME,PRIMARY AUTO,SFC_OBS,1
31,YPAD,ICAO,ADELAIDE INTL,METAR,-34.945,138.53055600000002,JMCLIM,DATA AVAILABLE,FULL TIME,UNKNOWN,SFC_OBS,1
32,KSLK,ICAO,ADIRONDACK RGNL,METAR,44.385311,-74.206186,LEGACY_OCDS,DATA AVAILABLE,FULL TIME,PRIMARY AUTO,SFC_OBS,1
33,WAHQ,ICAO,ADISUMARMO INTL,METAR,-7.5,110.75,LEGACY_OCDS,DATA LIMITED,PART TIME,UNKNOWN,SFC_OBS,1
34,LTBJ,ICAO,ADNAN MENDERES,METAR,38.292392,27.156953,JMCLIM,DATA AVAILABLE,FULL TIME,UNKNOWN,SFC_OBS,1
35,LIMA,ICAO,AERITALIA-TORINO,METAR,45.086353,7.603375,UNAVAILABLE,DATA LIMITED,PART TIME,UNKNOWN,SFC_OBS,1
36,K12N,ICAO,AEROFLEX ANDOVER,METAR,41.008621000000005,-74.738037,LEGACY_OCDS,DATA INCOMPLETE,FULL TIME,PRIMARY AUTO,SFC_OBS,1
37,SABE,ICAO,AEROPARQUE JORGE NEWBERY,METAR,-34.559175,-58.415606,JMCLIM,DATA LIMITED,FULL TIME,UNKNOWN,SFC_OBS,1
38,SBCT,ICAO,AFONSO PENA,METAR,-25.528475,-49.175775,JMCLIM,DATA AVAILABLE,FULL TIME,UNKNOWN,SFC_OBS,1
39,KAFO,ICAO,AFTON MUNI,METAR,42.711247,-110.942164,UNAVAILABLE,DATA AVAILABLE,FULL TIME,PRIMARY AUTO,SFC_OBS,1
40,LTAH,ICAO,AFYON,METAR,38.726425,30.601114000000003,JMCLIM,DATA LIMITED,PART TIME,UNKNOWN,SFC_OBS,1
41,DRZA,ICAO,AGADEZ,METAR,16.966666600000003,7.9666666,LIMCLIM,DATA LIMITED,PART TIME,UNKNOWN,SFC_OBS,1
42,VEAT,ICAO,AGARTALA,METAR,23.886978,91.24045,JMCLIM,DATA AVAILABLE,FULL TIME,UNKNOWN,SFC_OBS,1
43,VOAT,ICAO,AGATTI,METAR,10.823656,72.17604200000001,UNAVAILABLE,DATA LIMITED,PART TIME,UNKNOWN,SFC_OBS,1
44,OIAG,ICAO,AGHAJARI,METAR,30.74545,49.676261,JMCLIM,DATA LIMITED,FULL TIME,UNKNOWN,SFC_OBS,1
45,VIAG,ICAO,AGRA,METAR,27.155831,77.960892,LEGACY_OCDS,DATA LIMITED,PART TIME,UNKNOWN,SFC_OBS,1
46,WAHS,ICAO,AHMAD YANI INTL,METAR,-6.9833333,110.3833333,JMCLIM,DATA AVAILABLE,FULL TIME,UNKNOWN,SFC_OBS,1
47,VAAH,ICAO,AHMEDABAD,METAR,23.077242,72.63465,JMCLIM,DATA AVAILABLE,FULL TIME,UNKNOWN,SFC_OBS,1
48,OIAW,ICAO,AHWAZ,METAR,31.337444,48.762138,JMCLIM,DATA AVAILABLE,FULL TIME,UNKNOWN,SFC_OBS,1
49,LOXA,ICAO,AIGEN/ENNSTAL (MIL),METAR,47.5333333,14.133333300000002,UNAVAILABLE,DATA AVAILABLE,FULL TIME,UNKNOWN,SFC_OBS,1
50,KAIK,ICAO,AIKEN MUNI,METAR,33.649444,-81.685,UNAVAILABLE,DATA AVAILABLE,FULL TIME,PRIMARY AUTO,SFC_OBS,1
51,KANW,ICAO,AINSWORTH MUNI,METAR,42.5833333,-100.0,LEGACY_OCDS,DATA AVAILABLE,FULL TIME,PRIMARY AUTO,SFC_OBS,1
52,KILN,ICAO,AIRBORNE AIRPARK,METAR,39.427919,-83.792119,LEGACY_OCDS,DATA AVAILABLE,FULL TIME,PRIMARY AUTO,SFC_OBS,1
53,KLVN,ICAO,AIRLAKE,METAR,44.627858,-93.228097,JMCLIM,DATA AVAILABLE,FULL TIME,PRIMARY AUTO,SFC_OBS,1
54,KAIT,ICAO,AITKIN MUNI STEVE KURTZ FLD,METAR,46.548422,-93.6768,JMCLIM,DATA AVAILABLE,FULL TIME,PRIMARY AUTO,SFC_OBS,1
55,LFLB,ICAO,AIX LES BAINS,METAR,45.63805,5.880225,LEGACY_OCDS,DATA AVAILABLE,FULL TIME,PRIMARY AUTO,SFC_OBS,1
56,RJOE,ICAO,AKENO (JASDF),METAR,34.533333299999995,136.68333330000002,LEGACY_OCDS,DATA LIMITED,PART TIME,UNKNOWN,SFC_OBS,1
57,PAKH,ICAO,AKHIOK,METAR,56.9333333,-154.18333330000002,UNAVAILABLE,DATA AVAILABLE,FULL TIME,PRIMARY AUTO,SFC_OBS,1
58,LTBT,ICAO,AKHISAR,METAR,38.808887,27.83386,JMCLIM,DATA LIMITED,PART TIME,UNKNOWN,SFC_OBS,1
59,PAKI,ICAO,AKIAK,METAR,60.902889,-161.230583,UNAVAILABLE,DATA AVAILABLE,FULL TIME,PRIMARY AUTO,SFC_OBS,1
60,LTAE,ICAO,AKINCI,METAR,40.078919,32.565625,LEGACY_OCDS,DATA AVAILABLE,FULL TIME,UNKNOWN,SFC_OBS,1
61,RJSK,ICAO,AKITA,METAR,39.615556,140.218611,LEGACY_OCDS,DATA LIMITED,PART TIME,UNKNOWN,SFC_OBS,1
62,CYKD,ICAO,AKLAVIK,METAR,68.223333,-135.005833,LEGACY_OCDS,DATA LIMITED,PART TIME,UNKNOWN,SFC_OBS,1
63,KCAK,ICAO,AKRON CANTON RGNL,METAR,40.916083,-81.442194,JMCLIM,DATA AVAILABLE,FULL TIME,UNKNOWN,SFC_OBS,1
64,KAKR,ICAO,AKRON FULTON INTL,METAR,41.0375,-81.46691700000001,UNAVAILABLE,DATA AVAILABLE,FULL TIME,PRIMARY AUTO,SFC_OBS,1
65,LCRA,ICAO,AKROTIRI,METAR,34.590416,32.987860999999995,JMCLIM,DATA LIMITED,FULL TIME,UNKNOWN,SFC_OBS,1
66,UATE,ICAO,AKTAU,METAR,43.86005,51.091978000000005,JMCLIM,DATA AVAILABLE,FULL TIME,UNKNOWN,SFC_OBS,1
67,LGPZ,ICAO,AKTIO,METAR,38.925467,20.765311,JMCLIM,DATA AVAILABLE,FULL TIME,UNKNOWN,SFC_OBS,1
68,UATT,ICAO,AKTYUBINSK,METAR,50.245833000000005,57.206667,JMCLIM,DATA AVAILABLE,FULL TIME,UNKNOWN,SFC_OBS,1
69,CYKO,ICAO,AKULIVIK,METAR,60.818611,-78.148611,UNAVAILABLE,DATA LIMITED,PART TIME,UNKNOWN,SFC_OBS,1
70,DNAK,ICAO,AKURE,METAR,7.25,5.3,UNAVAILABLE,DATA LIMITED,PART TIME,UNKNOWN,SFC_OBS,1
71,BIAR,ICAO,AKUREYRI,METAR,65.659994,-18.072703,JMCLIM,DATA AVAILABLE,FULL TIME,UNKNOWN,SFC_OBS,1
72,PAUT,ICAO,AKUTAN,METAR,54.15,-165.6,UNAVAILABLE,DATA AVAILABLE,FULL TIME,PRIMARY AUTO,SFC_OBS,1
73,OEAH,ICAO,AL AHSA,METAR,25.285306,49.485189,JMCLIM,DATA LIMITED,FULL TIME,UNKNOWN,SFC_OBS,1
74,OMAL,ICAO,AL AIN INTL,METAR,24.261667000000003,55.60916700000001,JMCLIM,DATA LIMITED,FULL TIME,UNKNOWN,SFC_OBS,1
75,ORAA,ICAO,AL ASAD AB,METAR,33.785608,42.4412,UNAVAILABLE,NEW SITE,PART TIME,UNKNOWN,SFC_OBS,1
76,OEBA,ICAO,AL BAHA,METAR,20.296139,41.634277,JMCLIM,DATA AVAILABLE,FULL TIME,UNKNOWN,SFC_OBS,1
77,OMAM,ICAO,AL DHAFRA,METAR,24.248249,54.547722,UNAVAILABLE,DATA AVAILABLE,FULL TIME,UNKNOWN,SFC_OBS,1
78,OMAH,ICAO,AL HAMRA AUX,METAR,24.073981,52.463644,UNAVAILABLE,DATA AVAILABLE,FULL TIME,PRIMARY AUTO,SFC_OBS,1
79,OESK,ICAO,AL JOUF,METAR,29.785133,40.100006,JMCLIM,DATA LIMITED,FULL TIME,UNKNOWN,SFC_OBS,1
80,OEKJ,ICAO,AL KHARJ,METAR,24.06072,47.41081,JMCLIM,DATA LIMITED,FULL TIME,UNKNOWN,SFC_OBS,1
81,OMDW,ICAO,AL MAKTOUM INTL AIRPORT,METAR,24.88611,55.17222,UNAVAILABLE,DATA LIMITED,FULL TIME,UNKNOWN,SFC_OBS,1
82,GMAD,ICAO,AL MASSIRA,METAR,30.324997,-9.413067,JMCLIM,DATA AVAILABLE,FULL TIME,UNKNOWN,SFC_OBS,1
83,ORSH,ICAO,AL SAHRA AAF,METAR,34.673231,43.542994,LIMCLIM,NEW SITE,PART TIME,UNKNOWN,SFC_OBS,1
84,OTBH,ICAO,AL UDEID AB,METAR,25.117317,51.314989,JMCLIM,DATA AVAILABLE,FULL TIME,PRIMARY AUGMENTED,SFC_OBS,1
85,KHHV,ICAO,ALAMINOS CANYON 25 OIL PLATFORM,METAR,26.939,-94.689,UNAVAILABLE,DATA LIMITED,FULL TIME,PRIMARY AUTO,SFC_OBS,1
86,KALM,ICAO,ALAMOGORDO WHITE SANDS RGNL,METAR,32.839944,-105.990583,UNAVAILABLE,DATA AVAILABLE,FULL TIME,PRIMARY AUTO,SFC_OBS,1
87,LEAB,ICAO,ALBACETE,METAR,38.948528,-1.863517,JMCLIM,DATA LIMITED,FULL TIME,UNKNOWN,SFC_OBS,1
88,SBLB,ICAO,ALBACORA P25 OIL PLATFORM,METAR,-22.1,-39.9166666,UNAVAILABLE,DATA INCOMPLETE,PART TIME,UNKNOWN,SFC_OBS,1
89,YABA,ICAO,ALBANY,METAR,-34.943333,117.808889,UNAVAILABLE,DATA AVAILABLE,FULL TIME,PRIMARY AUTO,SFC_OBS,1
90,KALB,ICAO,ALBANY INTL,METAR,42.748267,-73.801692,JMCLIM,DATA AVAILABLE,FULL TIME,UNKNOWN,SFC_OBS,1
91,LIMG,ICAO,ALBENGA,METAR,44.050608,8.127428,LEGACY_OCDS,DATA LIMITED,PART TIME,UNKNOWN,SFC_OBS,1
92,KOAJ,ICAO,ALBERT J ELLIS,METAR,34.829164,-77.612139,JMCLIM,DATA AVAILABLE,FULL TIME,UNKNOWN,SFC_OBS,1
93,KAEL,ICAO,ALBERT LEA MUNI,METAR,43.681514,-93.367239,JMCLIM,DATA AVAILABLE,FULL TIME,PRIMARY AUTO,SFC_OBS,1
94,KSPG,ICAO,ALBERT WHITTED,METAR,27.765111,-82.626972,LEGACY_OCDS,DATA AVAILABLE,FULL TIME,UNKNOWN,SFC_OBS,1
95,KFEP,ICAO,ALBERTUS,METAR,42.246158,-89.581986,JMCLIM,DATA AVAILABLE,FULL TIME,PRIMARY AUTO,SFC_OBS,1
96,K8A0,ICAO,ALBERTVILLE MUNI THOMAS J BRUMLIK FLD,METAR,34.229111,-86.255758,UNAVAILABLE,DATA AVAILABLE,FULL TIME,PRIMARY AUTO,SFC_OBS,1
97,KBVN,ICAO,ALBION MUNI,METAR,41.728578000000006,-98.055761,LEGACY_OCDS,DATA AVAILABLE,FULL TIME,PRIMARY AUTO,SFC_OBS,1
98,KABQ,ICAO,ALBUQUERQUE INTL,METAR,35.0401944,-106.609194,JMCLIM,DATA AVAILABLE,FULL TIME,UNKNOWN,SFC_OBS,1
99,YMAY,ICAO,ALBURY,METAR,-36.067778,146.958056,UNAVAILABLE,DATA AVAILABLE,FULL TIME,PRIMARY AUTO,SFC_OBS,1
100,SLAL,ICAO,ALCANTARI ARPT SUCRE YAMPARAEZ,METAR,-19.25,-65.15,UNAVAILABLE,DATA LIMITED,PART TIME,UNKNOWN,SFC_OBS,1
101,LERI,ICAO,ALCANTARILLA,METAR,37.951111,-1.230319,LEGACY_OCDS,DATA LIMITED,PART TIME,UNKNOWN,SFC_OBS,1
102,EGAA,ICAO,ALDERGROVE,METAR,54.6575,-6.215833,JMCLIM,DATA AVAILABLE,FULL TIME,UNKNOWN,SFC_OBS,1
103,EGJA,ICAO,ALDERNEY,METAR,49.706111,-2.214722,UNAVAILABLE,DATA AVAILABLE,FULL TIME,UNKNOWN,SFC_OBS,1
104,CYLT,ICAO,ALERT,METAR,82.517778,-62.280556,LIMCLIM,DATA LIMITED,PART TIME,UNKNOWN,SFC_OBS,1
105,KISW,ICAO,ALEXANDER FLD SOUTH WOOD CO,METAR,44.360339,-89.83896899999999,LEGACY_OCDS,DATA AVAILABLE,FULL TIME,PRIMARY AUTO,SFC_OBS,1
106,HEAX,ICAO,ALEXANDRIA INTL,METAR,31.183903000000004,29.948889,JMCLIM,DATA LIMITED,FULL TIME,UNKNOWN,SFC_OBS,1
107,KAEX,ICAO,ALEXANDRIA INTL,METAR,31.327372,-92.548556,JMCLIM,DATA AVAILABLE,FULL TIME,UNKNOWN,SFC_OBS,1
108,LGSK,ICAO,ALEXANDROS PAPADIAMANTIS,METAR,39.1771,23.503675,LEGACY_OCDS,DATA LIMITED,PART TIME,UNKNOWN,SFC_OBS,1
109,SPNC,ICAO,ALFEREZ FAP D F FERNANDINI,METAR,-9.878811,-76.204797,LEGACY_OCDS,NEW SITE,PART TIME,UNKNOWN,SFC_OBS,1
110,SKCL,ICAO,ALFONSO BONILLA ARAGON INTL,METAR,3.543222,-76.38158299999999,JMCLIM,DATA AVAILABLE,FULL TIME,UNKNOWN,SFC_OBS,1
111,SKVP,ICAO,ALFONSO LOPEZ PUMAREJO,METAR,10.435042,-73.24950600000001,LIMCLIM,DATA LIMITED,PART TIME,UNKNOWN,SFC_OBS,1
112,SKLT,ICAO,ALFREDO VASQUEZ COBO,METAR,-4.193175,-69.942658,LIMCLIM,DATA AVAILABLE,FULL TIME,UNKNOWN,SFC_OBS,1
113,LEAG,ICAO,ALGECIRAS HELIPORT,METAR,36.1333333,-5.4333333,UNAVAILABLE,DATA AVAILABLE,FULL TIME,PRIMARY AUTO,SFC_OBS,1
114,LIEA,ICAO,ALGHERO,METAR,40.632133,8.290772,JMCLIM,DATA AVAILABLE,FULL TIME,UNKNOWN,SFC_OBS,1
115,KAXA,ICAO,ALGONA MUNI,METAR,43.077911,-94.271992,LEGACY_OCDS,DATA AVAILABLE,FULL TIME,PRIMARY AUTO,SFC_OBS,1
116,CTNK,ICAO,ALGONQUIN PARK EAST GATE,METAR,45.5333333,-78.2666666,UNAVAILABLE,DATA INCOMPLETE,FULL TIME,PRIMARY AUTO,SFC_OBS,1
117,CTNK,ICAO,ALGONQUIN PARK EAST GATE,METAR,45.5333333,-78.2666666,UNAVAILABLE,DATA INCOMPLETE,FULL TIME,UNKNOWN,SFC_OBS,1
118,OKAS,ICAO,ALI AL SALEM AB,METAR,29.346742,47.520753000000006,JMCLIM,DATA AVAILABLE,FULL TIME,PRIMARY AUGMENTED,SFC_OBS,1
119,ORTL,ICAO,ALI BASE,METAR,30.935758,46.090111,LIMCLIM,NEW SITE,PART TIME,UNKNOWN,SFC_OBS,1
120,LEAL,ICAO,ALICANTE,METAR,38.282169,-0.558156,JMCLIM,DATA AVAILABLE,FULL TIME,UNKNOWN,SFC_OBS,1
121,KALI,ICAO,ALICE INTL,METAR,27.740889000000003,-98.026944,LEGACY_OCDS,DATA AVAILABLE,FULL TIME,PRIMARY AUTO,SFC_OBS,1
122,YBAS,ICAO,ALICE SPRINGS,METAR,-23.806667,133.902222,JMCLIM,DATA AVAILABLE,FULL TIME,PRIMARY AUTO,SFC_OBS,1
123,OPLA,ICAO,ALLAMA IQBAL INTL,METAR,31.521564,74.403594,JMCLIM,DATA AVAILABLE,FULL TIME,UNKNOWN,SFC_OBS,1
124,KAGC,ICAO,ALLEGHENY CO,METAR,40.354443,-79.930275,LEGACY_OCDS,DATA AVAILABLE,FULL TIME,UNKNOWN,SFC_OBS,1
125,PABI,ICAO,ALLEN AAF / FT GREELEY ALASKA USA,METAR,63.994547,-145.721642,JMCLIM,DATA AVAILABLE,FULL TIME,UNKNOWN,SFC_OBS,1
126,KBKT,ICAO,ALLEN C PERKINSON BLACKSTONE AAF / FT PICKETT VIRGINIA USA,METAR,37.074194,-77.957528,UNAVAILABLE,DATA AVAILABLE,FULL TIME,PRIMARY AUTO,SFC_OBS,1
127,KK88,ICAO,ALLEN CO,METAR,37.870083,-95.386389,UNAVAILABLE,DATA AVAILABLE,FULL TIME,PRIMARY AUTO,SFC_OBS,1
128,KACP,ICAO,ALLEN PARISH,METAR,30.750556,-92.688611,JMCLIM,DATA AVAILABLE,FULL TIME,PRIMARY AUTO,SFC_OBS,1
129,KAQX,ICAO,ALLENDALE COUNTY AIRPORT,METAR,32.995111,-81.27024899999999,UNAVAILABLE,DATA AVAILABLE,FULL TIME,PRIMARY AUTO,SFC_OBS,1
130,KXLL,ICAO,ALLENTOWN/QUEEN,METAR,40.566666600000005,-75.4833333,UNAVAILABLE,DATA AVAILABLE,FULL TIME,PRIMARY AUTO,SFC_OBS,1
131,EDJA,ICAO,ALLGAU,METAR,47.988758,10.2395,LEGACY_OCDS,DATA AVAILABLE,FULL TIME,UNKNOWN,SFC_OBS,1
132,KAIA,ICAO,ALLIANCE MUNI,METAR,42.053222,-102.803778,LEGACY_OCDS,DATA AVAILABLE,FULL TIME,PRIMARY AUTO,SFC_OBS,1
133,UAAA,ICAO,ALMATY,METAR,43.352072,77.040508,JMCLIM,DATA AVAILABLE,FULL TIME,UNKNOWN,SFC_OBS,1
134,LEAM,ICAO,ALMERIA,METAR,36.843936,-2.370097,JMCLIM,DATA AVAILABLE,FULL TIME,UNKNOWN,SFC_OBS,1
135,SKRH,ICAO,ALMIRANTE PADILLA,METAR,11.526222,-72.925958,UNAVAILABLE,DATA LIMITED,PART TIME,UNKNOWN,SFC_OBS,1
136,KAPN,ICAO,ALPENA CO RGNL,METAR,45.078068,-83.560287,JMCLIM,DATA AVAILABLE,FULL TIME,PRIMARY AUTO,SFC_OBS,1
137,K46U,ICAO,ALPINE,METAR,43.184644,-111.042433,UNAVAILABLE,DATA AVAILABLE,FULL TIME,PRIMARY AUTO,SFC_OBS,1
138,LSMA,ICAO,ALPNACH,METAR,46.943889,8.284167,UNAVAILABLE,DATA AVAILABLE,FULL TIME,PRIMARY AUTO,SFC_OBS,1
139,ENAT,ICAO,ALTA,METAR,69.976111,23.371667,JMCLIM,DATA AVAILABLE,FULL TIME,UNKNOWN,SFC_OBS,1
140,SBAT,ICAO,ALTA FLORESTA,METAR,-9.866092,-56.10620600000001,JMCLIM,DATA LIMITED,PART TIME,UNKNOWN,SFC_OBS,1
141,SBHT,ICAO,ALTAMIRA,METAR,-3.253906,-52.253978,LEGACY_OCDS,DATA LIMITED,PART TIME,UNKNOWN,SFC_OBS,1
142,EDAC,ICAO,ALTENBURG NOBITZ,METAR,50.981817,12.506361,LIMCLIM,DATA AVAILABLE,FULL TIME,PRIMARY AUTO,SFC_OBS,1
143,ETHA,ICAO,ALTENSTADT,METAR,47.8333333,10.866666699999998,UNAVAILABLE,DATA LIMITED,FULL TIME,PRIMARY AUTO,SFC_OBS,1
144,KAOO,ICAO,ALTOONA BLAIR CO,METAR,40.296372,-78.320022,JMCLIM,DATA AVAILABLE,FULL TIME,PRIMARY AUTO,SFC_OBS,1
145,KAAT,ICAO,ALTURAS MUNI,METAR,41.483,-120.56536,JMCLIM,DATA AVAILABLE,FULL TIME,PRIMARY AUTO,SFC_OBS,1
146,KLTS,ICAO,ALTUS AFB,METAR,34.667067,-99.266681,JMCLIM,DATA AVAILABLE,FULL TIME,PRIMARY AUTO,SFC_OBS,1
147,KAXS,ICAO,ALTUS QUARTZ MOUNTAIN RGNL,METAR,34.696389,-99.340278,UNAVAILABLE,DATA AVAILABLE,FULL TIME,PRIMARY AUTO,SFC_OBS,1
148,KAVK,ICAO,ALVA RGNL,METAR,36.773169,-98.669947,LIMCLIM,DATA AVAILABLE,FULL TIME,PRIMARY AUTO,SFC_OBS,1
149,LPAR,ICAO,ALVERCA,METAR,38.883278,-9.030097,UNAVAILABLE,DATA LIMITED,PART TIME,UNKNOWN,SFC_OBS,1
150,UOOO,ICAO,ALYKEL,METAR,69.311053,87.332183,UNAVAILABLE,DATA AVAILABLE,FULL TIME,UNKNOWN,SFC_OBS,1
151,RJDA,ICAO,AMAKUSA,METAR,32.482503,130.15886899999998,UNAVAILABLE,DATA LIMITED,PART TIME,UNKNOWN,SFC_OBS,1
152,RJKA,ICAO,AMAMI,METAR,28.430633,129.71254199999998,LEGACY_OCDS,DATA LIMITED,PART TIME,UNKNOWN,SFC_OBS,1
153,MHAM,ICAO,AMAPALA/LOS PELONAS,METAR,13.2833333,-87.66666670000001,LEGACY_OCDS,DATA INCOMPLETE,PART TIME,UNKNOWN,SFC_OBS,1
154,EEEI,ICAO,AMARI,METAR,59.260286,24.208467,MINCLIM,DATA LIMITED,PART TIME,UNKNOWN,SFC_OBS,1
155,YAMB,ICAO,AMBERLEY,METAR,-27.640556,152.711944,JMCLIM,DATA AVAILABLE,FULL TIME,PRIMARY AUTO,SFC_OBS,1
156,PAFM,ICAO,AMBLER,METAR,67.106314,-157.857472,JMCLIM,DATA AVAILABLE,FULL TIME,PRIMARY AUTO,SFC_OBS,1
157,GAMB,ICAO,AMBODEDJO,METAR,14.512803,-4.079561,LEGACY_OCDS,DATA LIMITED,PART TIME,UNKNOWN,SFC_OBS,1
158,SACO,ICAO,AMBROSIO L V TARAVELLA,METAR,-31.323619,-64.207953,JMCLIM,DATA AVAILABLE,FULL TIME,UNKNOWN,SFC_OBS,1
159,LIBA,ICAO,AMENDOLA,METAR,41.541392,15.718082999999998,JMCLIM,DATA LIMITED,PART TIME,UNKNOWN,SFC_OBS,1
160,KAMW,ICAO,AMES MUNI,METAR,42.0,-93.6166666,LEGACY_OCDS,DATA AVAILABLE,FULL TIME,PRIMARY AUTO,SFC_OBS,1
161,GVAC,ICAO,AMILCAR CABRAL INTL,METAR,16.741389,-22.949444,JMCLIM,DATA AVAILABLE,FULL TIME,UNKNOWN,SFC_OBS,1
162,VIAR,ICAO,AMRITSAR,METAR,31.709594,74.797264,JMCLIM,DATA AVAILABLE,FULL TIME,UNKNOWN,SFC_OBS,1
163,LTBY,ICAO,ANADOLU,METAR,39.809858,30.519378000000003,UNAVAILABLE,DATA AVAILABLE,FULL TIME,UNKNOWN,SFC_OBS,1
164,PAKP,ICAO,ANAKTUVUK PASS,METAR,68.133597,-151.74334199999998,JMCLIM,DATA AVAILABLE,FULL TIME,PRIMARY AUTO,SFC_OBS,1
165,PALH,ICAO,ANCHORAGE  LAKE HOOD SEAPLANE BA,METAR,61.18,-149.97,LEGACY_OCDS,DATA AVAILABLE,FULL TIME,UNKNOWN,SFC_OBS,1
166,SPHY,ICAO,ANDAHUAYLAS,METAR,-13.706407999999998,-73.350378,UNAVAILABLE,DATA LIMITED,PART TIME,UNKNOWN,SFC_OBS,1
167,K79J,ICAO,ANDALUSIA OPP,METAR,31.308752,-86.393778,LEGACY_OCDS,DATA AVAILABLE,FULL TIME,PRIMARY AUTO,SFC_OBS,1
168,PGUA,ICAO,ANDERSEN AFB,METAR,13.583953,144.930025,JMCLIM,DATA AVAILABLE,FULL TIME,PRIMARY AUGMENTED,SFC_OBS,1
169,KAID,ICAO,ANDERSON MUNI DARLINGTON FLD,METAR,40.108611,-85.613,UNAVAILABLE,DATA AVAILABLE,FULL TIME,PRIMARY AUTO,SFC_OBS,1
170,KAND,ICAO,ANDERSON RGNL,METAR,34.494944,-82.709028,LEGACY_OCDS,DATA AVAILABLE,FULL TIME,PRIMARY AUTO,SFC_OBS,1
171,UTFA,ICAO,ANDIZHAN AIRPORT,METAR,40.7333333,72.33333329999999,UNAVAILABLE,DATA LIMITED,PART TIME,UNKNOWN,SFC_OBS,1
172,ENAN,ICAO,ANDOYA,METAR,69.2925,16.144167000000003,JMCLIM,DATA AVAILABLE,FULL TIME,PRIMARY AUTO,SFC_OBS,1
173,LGAD,ICAO,ANDRAVIDA,METAR,37.920708000000005,21.292583,JMCLIM,DATA AVAILABLE,FULL TIME,UNKNOWN,SFC_OBS,1
174,EGRO,ICAO,ANDREW OIL PLATFORM,METAR,58.0333333,1.4,UNAVAILABLE,DATA AVAILABLE,FULL TIME,PRIMARY AUTO,SFC_OBS,1
175,KADW,ICAO,ANDREWS AFB,METAR,38.810806,-76.867028,JMCLIM,DATA AVAILABLE,FULL TIME,PRIMARY AUTO,SFC_OBS,1
176,KE11,ICAO,ANDREWS CO AIRPORT,METAR,32.331111,-102.529528,UNAVAILABLE,DATA AVAILABLE,FULL TIME,PRIMARY AUTO,SFC_OBS,1
177,KRHP,ICAO,ANDREWS MURPHY,METAR,35.195231,-83.863039,LEGACY_OCDS,DATA AVAILABLE,FULL TIME,PRIMARY AUTO,SFC_OBS,1
178,GMMC,ICAO,ANFA,METAR,33.556981,-7.660492,LEGACY_OCDS,DATA LIMITED,PART TIME,UNKNOWN,SFC_OBS,1
179,GMFO,ICAO,ANGADS,METAR,34.78715,-1.923986,JMCLIM,DATA LIMITED,FULL TIME,UNKNOWN,SFC_OBS,1
180,KAXX,ICAO,ANGEL FIRE,METAR,36.4166666,-105.28991,UNAVAILABLE,DATA AVAILABLE,FULL TIME,PRIMARY AUTO,SFC_OBS,1
181,SUAA,ICAO,ANGEL S ADAMI,METAR,-34.789208,-56.264703,LEGACY_OCDS,DATA LIMITED,PART TIME,UNKNOWN,SFC_OBS,1
182,ESTA,ICAO,ANGELHOLM,METAR,56.296072,12.847139,LEGACY_OCDS,DATA AVAILABLE,FULL TIME,PRIMARY AUTO,SFC_OBS,1
183,KLFK,ICAO,ANGELINA CO,METAR,31.234014,-94.75,LEGACY_OCDS,DATA AVAILABLE,FULL TIME,PRIMARY AUTO,SFC_OBS,1
184,LFBZ,ICAO,ANGLET,METAR,43.468419,-1.523325,LEGACY_OCDS,DATA AVAILABLE,FULL TIME,PRIMARY AUTO,SFC_OBS,1
185,PAGN,ICAO,ANGOON,METAR,57.5,-134.58,LEGACY_OCDS,DATA AVAILABLE,FULL TIME,PRIMARY AUTO,SFC_OBS,1
186,PANI,ICAO,ANIAK,METAR,61.581597,-159.543042,JMCLIM,DATA AVAILABLE,FULL TIME,PRIMARY AUTO,SFC_OBS,1
187,KIKV,ICAO,ANKENY RGNL,METAR,41.691361,-93.566361,LEGACY_OCDS,DATA AVAILABLE,FULL TIME,PRIMARY AUTO,SFC_OBS,1
188,KARB,ICAO,ANN ARBOR MUNI,METAR,42.222984,-83.74560799999999,UNAVAILABLE,DATA AVAILABLE,FULL TIME,UNKNOWN,SFC_OBS,1
189,DABB,ICAO,ANNABA,METAR,36.822225,7.809166999999999,JMCLIM,DATA AVAILABLE,FULL TIME,UNKNOWN,SFC_OBS,1
190,KNAK,ICAO,ANNAPOLIS UNITED STATES NAVAL ACADEMY,METAR,38.99,-76.48,UNAVAILABLE,DATA AVAILABLE,FULL TIME,PRIMARY AUTO,SFC_OBS,1
191,PANT,ICAO,ANNETTE ISLAND,METAR,55.042436,-131.572233,JMCLIM,DATA AVAILABLE,FULL TIME,PRIMARY AUTO,SFC_OBS,1
192,KANB,ICAO,ANNISTON METRO,METAR,33.588167,-85.858111,JMCLIM,DATA AVAILABLE,FULL TIME,PRIMARY AUTO,SFC_OBS,1
193,KANE,ICAO,ANOKA CO BLAINE,METAR,45.145,-93.211388,UNAVAILABLE,DATA AVAILABLE,FULL TIME,PRIMARY AUTO,SFC_OBS,1
194,ETEB,ICAO,ANSBACH AHP / KATTERBACH GERMANY,METAR,49.308219,10.638717,JMCLIM,DATA AVAILABLE,FULL TIME,PRIMARY AUTO,SFC_OBS,1
195,LTAI,ICAO,ANTALYA,METAR,36.898731,30.800461,JMCLIM,DATA AVAILABLE,FULL TIME,UNKNOWN,SFC_OBS,1
196,LTFG,ICAO,ANTALYA/GAZIPASA,METAR,36.3,32.3,UNAVAILABLE,DATA LIMITED,FULL TIME,UNKNOWN,SFC_OBS,1
197,MUCU,ICAO,ANTONIO MACEO INTL,METAR,19.969769,-75.835414,JMCLIM,DATA AVAILABLE,FULL TIME,UNKNOWN,SFC_OBS,1
198,SKPS,ICAO,ANTONIO NARINO,METAR,1.392844,-77.29082199999999,LEGACY_OCDS,DATA LIMITED,PART TIME,UNKNOWN,SFC_OBS,1
199,SKLC,ICAO,ANTONIO ROLDAN BETANCOURT,METAR,7.811955999999999,-76.71642800000001,MINCLIM,DATA LIMITED,PART TIME,UNKNOWN,SFC_OBS,1
200,UKKM,ICAO,ANTONOV INTL,METAR,50.603497,30.191933,JMCLIM,DATA AVAILABLE,FULL TIME,PRIMARY AUTO,SFC_OBS,1
201,KACB,ICAO,ANTRIM CO,METAR,44.988575,-85.198356,LEGACY_OCDS,DATA AVAILABLE,FULL TIME,PRIMARY AUTO,SFC_OBS,1
202,PANV,ICAO,ANVIK,METAR,62.646733,-160.190658,LIMCLIM,DATA LIMITED,PART TIME,UNKNOWN,SFC_OBS,1
203,RJSA,ICAO,AOMORI,METAR,40.734722,140.690833,JMCLIM,DATA LIMITED,PART TIME,UNKNOWN,SFC_OBS,1
204,KAAF,ICAO,APALACHICOLA MUNI,METAR,29.727547,-85.027447,JMCLIM,DATA AVAILABLE,FULL TIME,PRIMARY AUTO,SFC_OBS,1
205,SLAP,ICAO,APOLO,METAR,-14.733333300000002,-68.41666670000001,LEGACY_OCDS,DATA INCOMPLETE,PART TIME,UNKNOWN,SFC_OBS,1
206,KAQP,ICAO,APPLETON APPLETON MUNICIPAL AIR,METAR,45.23,-96.0,JMCLIM,DATA AVAILABLE,FULL TIME,PRIMARY AUTO,SFC_OBS,1
207,OJAQ,ICAO,AQABA KING HUSSEIN INTL,METAR,29.611619,35.018066999999995,JMCLIM,DATA LIMITED,FULL TIME,UNKNOWN,SFC_OBS,1
208,OEAR,ICAO,AR RAYIS,METAR,23.558521,38.602106,UNAVAILABLE,DATA LIMITED,FULL TIME,UNKNOWN,SFC_OBS,1
209,SBAU,ICAO,ARACATUBA,METAR,-21.141342,-50.424722,UNAVAILABLE,DATA LIMITED,PART TIME,UNKNOWN,SFC_OBS,1
210,LRAR,ICAO,ARAD,METAR,46.17655,21.262022,JMCLIM,DATA AVAILABLE,FULL TIME,UNKNOWN,SFC_OBS,1
211,OIHR,ICAO,ARAK,METAR,34.138069,49.847297,LIMCLIM,DATA LIMITED,PART TIME,UNKNOWN,SFC_OBS,1
212,KRKP,ICAO,ARANSAS CO,METAR,28.086778,-97.044611,LEGACY_OCDS,DATA AVAILABLE,FULL TIME,PRIMARY AUTO,SFC_OBS,1
213,OERR,ICAO,ARAR,METAR,30.906589,41.138217,JMCLIM,DATA LIMITED,FULL TIME,UNKNOWN,SFC_OBS,1
214,SBAQ,ICAO,ARARAQUARA,METAR,-21.812,-48.133028,UNAVAILABLE,DATA LIMITED,PART TIME,UNKNOWN,SFC_OBS,1
215,SBAX,ICAO,ARAXA,METAR,-19.563247,-46.960358,UNAVAILABLE,DATA LIMITED,PART TIME,UNKNOWN,SFC_OBS,1
216,LGRX,ICAO,ARAXOS,METAR,38.151111,21.425556,LEGACY_OCDS,DATA AVAILABLE,FULL TIME,UNKNOWN,SFC_OBS,1
217,KACV,ICAO,ARCATA,METAR,40.978111,-124.108611,JMCLIM,DATA AVAILABLE,FULL TIME,PRIMARY AUTO,SFC_OBS,1
218,PARC,ICAO,ARCTIC VILLAGE,METAR,68.11466899999999,-145.579417,LEGACY_OCDS,DATA AVAILABLE,FULL TIME,PRIMARY AUTO,SFC_OBS,1
219,OITL,ICAO,ARDABIL,METAR,38.326261,48.424414,LEGACY_OCDS,DATA AVAILABLE,FULL TIME,UNKNOWN,SFC_OBS,1
220,K1F0,ICAO,ARDMORE DOWNTOWN EXECUTIVE,METAR,34.146989000000005,-97.122653,UNAVAILABLE,DATA AVAILABLE,FULL TIME,PRIMARY AUTO,SFC_OBS,1
221,KADM,ICAO,ARDMORE MUNI,METAR,34.300833000000004,-97.008889,LEGACY_OCDS,DATA AVAILABLE,FULL TIME,PRIMARY AUTO,SFC_OBS,1
222,LIQB,ICAO,AREZZO,METAR,43.466666700000005,11.85,LEGACY_OCDS,DATA LIMITED,PART TIME,UNKNOWN,SFC_OBS,1
223,YARG,ICAO,ARGYLE,METAR,-16.636944,128.45138899999998,UNAVAILABLE,DATA AVAILABLE,FULL TIME,PRIMARY AUTO,SFC_OBS,1
224,KBYH,ICAO,ARKANSAS INTL,METAR,35.964347,-89.943956,JMCLIM,DATA LIMITED,PART TIME,UNKNOWN,SFC_OBS,1
225,ESSA,ICAO,ARLANDA,METAR,59.65194399999999,17.918611,JMCLIM,DATA AVAILABLE,FULL TIME,UNKNOWN,SFC_OBS,1
226,KGKY,ICAO,ARLINGTON MUNI,METAR,32.663861,-97.094278,UNAVAILABLE,DATA AVAILABLE,FULL TIME,UNKNOWN,SFC_OBS,1
227,KAWO,ICAO,ARLINGTON MUNICIPAL AIRPORT,METAR,48.160748,-122.159028,JMCLIM,DATA AVAILABLE,FULL TIME,PRIMARY AUTO,SFC_OBS,1
228,LEGA,ICAO,ARMILLA,METAR,37.133222,-3.635694,UNAVAILABLE,DATA LIMITED,PART TIME,UNKNOWN,SFC_OBS,1
229,LFRT,ICAO,ARMOR,METAR,48.537777,-2.854445,LEGACY_OCDS,DATA AVAILABLE,FULL TIME,PRIMARY AUTO,SFC_OBS,1
230,CYYW,ICAO,ARMSTRONG,METAR,50.290279,-88.90972099999999,UNAVAILABLE,DATA AVAILABLE,FULL TIME,PRIMARY AUTO,SFC_OBS,1
231,LFRM,ICAO,ARNAGE,METAR,47.948611,0.201667,JMCLIM,DATA AVAILABLE,FULL TIME,PRIMARY AUTO,SFC_OBS,1
232,KLBE,ICAO,ARNOLD PALMER RGNL,METAR,40.275939,-79.404797,LEGACY_OCDS,DATA AVAILABLE,FULL TIME,PRIMARY AUTO,SFC_OBS,1
233,ENML,ICAO,ARO,METAR,62.744722,7.2625,UNAVAILABLE,DATA AVAILABLE,FULL TIME,PRIMARY AUTO,SFC_OBS,1
234,FMNA,ICAO,ARRACHART,METAR,-12.3494,49.291747,LEGACY_OCDS,DATA LIMITED,PART TIME,UNKNOWN,SFC_OBS,1
235,MDAB,ICAO,ARROYO BARRIL INTL,METAR,19.198586,-69.429772,UNAVAILABLE,DATA LIMITED,PART TIME,UNKNOWN,SFC_OBS,1
236,KATS,ICAO,ARTESIA MUNI,METAR,32.852528,-104.467686,LEGACY_OCDS,DATA AVAILABLE,FULL TIME,PRIMARY AUTO,SFC_OBS,1
237,KCIN,ICAO,ARTHUR N NEU,METAR,42.046194,-94.789001,LEGACY_OCDS,DATA AVAILABLE,FULL TIME,PRIMARY AUTO,SFC_OBS,1
238,CYAB,ICAO,ARTIC BAY,METAR,73.0,-85.0333333,UNAVAILABLE,DATA LIMITED,PART TIME,UNKNOWN,SFC_OBS,1
239,SUAG,ICAO,ARTIGAS INTL,METAR,-30.400706,-56.50786899999999,LEGACY_OCDS,DATA INCOMPLETE,PART TIME,UNKNOWN,SFC_OBS,1
240,SCEL,ICAO,ARTURO MERINO BENITEZ INTL,METAR,-33.392975,-70.785803,JMCLIM,DATA AVAILABLE,FULL TIME,UNKNOWN,SFC_OBS,1
241,SVVA,ICAO,ARTURO MICHELENA INTL,METAR,10.149733,-67.9284,LEGACY_OCDS,NEW SITE,PART TIME,UNKNOWN,SFC_OBS,1
242,HTAR,ICAO,ARUSHA,METAR,-3.3677940000000004,36.633333,LEGACY_OCDS,DATA LIMITED,PART TIME,UNKNOWN,SFC_OBS,1
243,CYEK,ICAO,ARVIAT,METAR,61.094166,-94.070833,UNAVAILABLE,DATA AVAILABLE,FULL TIME,PRIMARY AUTO,SFC_OBS,1
244,ESNX,ICAO,ARVIDSJAUR,METAR,65.590278,19.281944,UNAVAILABLE,DATA AVAILABLE,FULL TIME,PRIMARY AUTO,SFC_OBS,1
245,RJEC,ICAO,ASAHIKAWA,METAR,43.670833,142.4475,LEGACY_OCDS,DATA LIMITED,PART TIME,UNKNOWN,SFC_OBS,1
246,RJCA,ICAO,ASAHIKAWA,METAR,43.795181,142.363136,LEGACY_OCDS,DATA LIMITED,PART TIME,UNKNOWN,SFC_OBS,1
247,SLAS,ICAO,ASCENCION GUARAYOS,METAR,-15.7166667,-63.1,LEGACY_OCDS,DATA INCOMPLETE,PART TIME,UNKNOWN,SFC_OBS,1
248,FHAW,ICAO,ASCENSION AUX AF,METAR,-7.969597,-14.393664,LIMCLIM,DATA LIMITED,PART TIME,UNKNOWN,SFC_OBS,1
249,KGEV,ICAO,ASHE COUNTY,METAR,36.432431,-81.41968299999999,LEGACY_OCDS,DATA AVAILABLE,FULL TIME,PRIMARY AUTO,SFC_OBS,1
250,KHBI,ICAO,ASHEBORO RGNL,METAR,35.654528000000006,-79.894739,JMCLIM,DATA AVAILABLE,FULL TIME,PRIMARY AUTO,SFC_OBS,1
251,KAVL,ICAO,ASHEVILLE RGNL,METAR,35.436194,-82.54180600000001,JMCLIM,DATA AVAILABLE,FULL TIME,UNKNOWN,SFC_OBS,1
252,UTAA,ICAO,ASHGABAT,METAR,37.986814,58.360967,JMCLIM,DATA AVAILABLE,FULL TIME,UNKNOWN,SFC_OBS,1
253,RJFA,ICAO,ASHIYA,METAR,33.883083,130.653,JMCLIM,DATA AVAILABLE,FULL TIME,UNKNOWN,SFC_OBS,1
254,KDWU,ICAO,ASHLAND RGNL,METAR,38.5545,-82.737999,UNAVAILABLE,DATA AVAILABLE,FULL TIME,PRIMARY AUTO,SFC_OBS,1
255,KHZY,ICAO,ASHTABULA CO,METAR,41.777972,-80.69550799999999,LEGACY_OCDS,DATA AVAILABLE,FULL TIME,PRIMARY AUTO,SFC_OBS,1
256,KASE,ICAO,ASPEN PITKIN CO SARDY FLD,METAR,39.223167,-106.868861,LEGACY_OCDS,DATA AVAILABLE,FULL TIME,UNKNOWN,SFC_OBS,1
257,LLER,ICAO,ASSAF RAMON INTL / EILAT,METAR,29.727167,35.014167,UNAVAILABLE,DATA LIMITED,PART TIME,UNKNOWN,SFC_OBS,1
258,UACC,ICAO,ASTANA INTL,METAR,51.022222,71.466944,JMCLIM,DATA AVAILABLE,FULL TIME,UNKNOWN,SFC_OBS,1
259,KAST,ICAO,ASTORIA RGNL,METAR,46.157972,-123.878694,JMCLIM,DATA AVAILABLE,FULL TIME,PRIMARY AUTO,SFC_OBS,1
260,URWA,ICAO,ASTRAKHAN,METAR,46.283333,48.006278,JMCLIM,DATA AVAILABLE,FULL TIME,UNKNOWN,SFC_OBS,1
261,LEAS,ICAO,ASTURIAS,METAR,43.563567,-6.034622,UNAVAILABLE,DATA AVAILABLE,FULL TIME,UNKNOWN,SFC_OBS,1
262,HESN,ICAO,ASWAN INTL,METAR,23.964356,32.819975,JMCLIM,DATA LIMITED,PART TIME,UNKNOWN,SFC_OBS,1
263,HEAT,ICAO,ASYUT INTL,METAR,27.046508000000003,31.011983,JMCLIM,DATA LIMITED,FULL TIME,UNKNOWN,SFC_OBS,1
264,GQPA,ICAO,ATAR,METAR,20.506828,-13.043194,MINCLIM,DATA LIMITED,PART TIME,UNKNOWN,SFC_OBS,1
265,LTBA,ICAO,ATATURK,METAR,40.976892,28.821111,JMCLIM,DATA AVAILABLE,FULL TIME,UNKNOWN,SFC_OBS,1
266,KAHN,ICAO,ATHENS BEN EPPS,METAR,33.948594,-83.326347,JMCLIM,DATA AVAILABLE,FULL TIME,UNKNOWN,SFC_OBS,1
267,KF44,ICAO,ATHENS MUNI,METAR,32.163847,-95.828353,UNAVAILABLE,DATA AVAILABLE,FULL TIME,PRIMARY AUTO,SFC_OBS,1
268,NCAT,ICAO,ATIU ENUA MANU,METAR,-19.9678,-158.119,UNAVAILABLE,DATA INCOMPLETE,FULL TIME,PRIMARY AUTO,SFC_OBS,1
269,PAAK,ICAO,ATKA AIRPORT,METAR,52.22,-174.21,UNAVAILABLE,DATA LIMITED,PART TIME,PRIMARY AUTO,SFC_OBS,1
270,KPTS,ICAO,ATKINSON MUNI,METAR,37.44945,-94.731119,UNAVAILABLE,DATA AVAILABLE,FULL TIME,PRIMARY AUTO,SFC_OBS,1
271,KCVC,ICAO,ATLANTA (COVINGTON MUNI,METAR,33.6333333,-83.85,UNAVAILABLE,DATA AVAILABLE,FULL TIME,PRIMARY AUTO,SFC_OBS,1
272,KACY,ICAO,ATLANTIC CITY INTL,METAR,39.457583,-74.577167,JMCLIM,DATA AVAILABLE,FULL TIME,UNKNOWN,SFC_OBS,1
273,KAIO,ICAO,ATLANTIC MUNI,METAR,41.407267,-95.046906,LEGACY_OCDS,DATA AVAILABLE,FULL TIME,PRIMARY AUTO,SFC_OBS,1
274,KATP,ICAO,ATLANTIS,METAR,27.2,-90.0333333,UNAVAILABLE,DATA AVAILABLE,FULL TIME,PRIMARY AUTO,SFC_OBS,1
275,KAQR,ICAO,ATOKA MUNI,METAR,34.398339,-96.148061,LEGACY_OCDS,DATA AVAILABLE,FULL TIME,PRIMARY AUTO,SFC_OBS,1
276,PATQ,ICAO,ATQASUK EDWARD BURNELL SR MEM,METAR,70.467275,-157.43573600000002,UNAVAILABLE,DATA AVAILABLE,FULL TIME,PRIMARY AUTO,SFC_OBS,1
277,RJTA,ICAO,ATSUGI NAF,METAR,35.454611,139.450167,JMCLIM,DATA AVAILABLE,FULL TIME,UNKNOWN,SFC_OBS,1
278,CYAT,ICAO,ATTAWAPISKAT,METAR,52.9333333,-82.4,UNAVAILABLE,DATA AVAILABLE,FULL TIME,PRIMARY AUTO,SFC_OBS,1
279,UATG,ICAO,ATYRAU,METAR,47.121944,51.821389,JMCLIM,DATA AVAILABLE,FULL TIME,UNKNOWN,SFC_OBS,1
280,KGWB,ICAO,AUBURN / DE KALB CO,METAR,41.307167,-85.064361,UNAVAILABLE,DATA AVAILABLE,FULL TIME,PRIMARY AUTO,SFC_OBS,1
281,KLEW,ICAO,AUBURN LEWISTON MUNI,METAR,44.048472,-70.283506,JMCLIM,DATA AVAILABLE,FULL TIME,PRIMARY AUTO,SFC_OBS,1
282,KAUN,ICAO,AUBURN MUNI,METAR,38.954819,-121.081725,JMCLIM,DATA AVAILABLE,FULL TIME,PRIMARY AUTO,SFC_OBS,1
283,KAUO,ICAO,AUBURN OPELIKA ROBERT G PITTS,METAR,32.615119,-85.434014,JMCLIM,DATA AVAILABLE,FULL TIME,PRIMARY AUTO,SFC_OBS,1
284,NZAA,ICAO,AUCKLAND INTL,METAR,-37.008056,174.791667,JMCLIM,DATA AVAILABLE,FULL TIME,PRIMARY AUTO,SFC_OBS,1
285,KADU,ICAO,AUDUBON CO,METAR,41.701374,-94.920542,LEGACY_OCDS,DATA AVAILABLE,FULL TIME,PRIMARY AUTO,SFC_OBS,1
286,EDMA,ICAO,AUGSBURG,METAR,48.425158,10.931764,JMCLIM,DATA AVAILABLE,FULL TIME,PRIMARY AUTO,SFC_OBS,1
287,K3AU,ICAO,AUGUSTA MUNI,METAR,37.671627,-97.077873,UNAVAILABLE,DATA AVAILABLE,FULL TIME,PRIMARY AUTO,SFC_OBS,1
288,KAGS,ICAO,AUGUSTA RGNL AT BUSH FLD,METAR,33.369944,-81.9645,JMCLIM,DATA AVAILABLE,FULL TIME,UNKNOWN,SFC_OBS,1
289,KAUG,ICAO,AUGUSTA STATE,METAR,44.320647,-69.797317,JMCLIM,DATA AVAILABLE,FULL TIME,PRIMARY AUTO,SFC_OBS,1
290,SBNT,ICAO,AUGUSTO SEVERO,METAR,-5.911417,-35.247717,JMCLIM,DATA AVAILABLE,FULL TIME,UNKNOWN,SFC_OBS,1
291,CYLA,ICAO,AUPALUKA,METAR,59.29667,-69.98339,UNAVAILABLE,DATA LIMITED,PART TIME,UNKNOWN,SFC_OBS,1
292,VAAU,ICAO,AURANGABAD,METAR,19.863169,75.398206,LEGACY_OCDS,DATA LIMITED,PART TIME,UNKNOWN,SFC_OBS,1
293,LRBS,ICAO,AUREL VLAICU,METAR,44.503194,26.102111,JMCLIM,DATA AVAILABLE,FULL TIME,UNKNOWN,SFC_OBS,1
294,LFLW,ICAO,AURILLAC,METAR,44.891388,2.421944,LEGACY_OCDS,DATA AVAILABLE,FULL TIME,PRIMARY AUTO,SFC_OBS,1
295,KARR,ICAO,AURORA MUNI,METAR,41.771931,-88.475658,UNAVAILABLE,DATA AVAILABLE,FULL TIME,UNKNOWN,SFC_OBS,1
296,KAUH,ICAO,AURORA MUNI AL POTTER FLD,METAR,40.894139,-97.991556,LEGACY_OCDS,DATA AVAILABLE,FULL TIME,PRIMARY AUTO,SFC_OBS,1
297,KUAO,ICAO,AURORA STATE,METAR,45.247139,-122.770056,LEGACY_OCDS,DATA AVAILABLE,FULL TIME,UNKNOWN,SFC_OBS,1
298,KTMT,ICAO,AUSTIN ARPT,METAR,39.46794439999999,-117.197444,UNAVAILABLE,DATA AVAILABLE,FULL TIME,PRIMARY AUTO,SFC_OBS,1
299,KAUS,ICAO,AUSTIN BERGSTROM INTL,METAR,30.194528,-97.669889,JMCLIM,DATA AVAILABLE,FULL TIME,UNKNOWN,SFC_OBS,1
300,KATT,ICAO,AUSTIN CAMP MABRY,METAR,30.32,-97.77,UNAVAILABLE,DATA AVAILABLE,FULL TIME,PRIMARY AUTO,SFC_OBS,1
301,KEDC,ICAO,AUSTIN EXECUTIVE,METAR,30.395,-97.5667,UNAVAILABLE,DATA AVAILABLE,FULL TIME,PRIMARY AUTO,SFC_OBS,1
302,KAUM,ICAO,AUSTIN MUNI,METAR,43.664993,-92.933386,LEGACY_OCDS,DATA AVAILABLE,FULL TIME,PRIMARY AUTO,SFC_OBS,1
303,KGRB,ICAO,AUSTIN STRAUBEL INTL,METAR,44.485072,-88.129589,LEGACY_OCDS,DATA AVAILABLE,FULL TIME,UNKNOWN,SFC_OBS,1
304,LFLC,ICAO,AUVERGNE,METAR,45.786661,3.169169,LEGACY_OCDS,DATA AVAILABLE,FULL TIME,PRIMARY AUTO,SFC_OBS,1
305,YMAV,ICAO,AVALON,METAR,-38.039444,144.46944399999998,JMCLIM,DATA AVAILABLE,FULL TIME,PRIMARY AUTO,SFC_OBS,1
306,KSWW,ICAO,AVENGER FLD,METAR,32.467364,-100.466564,LEGACY_OCDS,DATA AVAILABLE,FULL TIME,PRIMARY AUTO,SFC_OBS,1
307,LIPA,ICAO,AVIANO AB,METAR,46.031889,12.596472,LIMCLIM,DATA LIMITED,PART TIME,UNKNOWN,SFC_OBS,1
308,EKAV,ICAO,AVNO AIR BASE,METAR,55.0833333,11.7833333,UNAVAILABLE,DATA INCOMPLETE,FULL TIME,PRIMARY AUTO,SFC_OBS,1
309,LFOA,ICAO,AVORD,METAR,47.053333,2.6325,UNAVAILABLE,DATA AVAILABLE,FULL TIME,PRIMARY AUTO,SFC_OBS,1
310,LTBD,ICAO,AYDIN,METAR,37.85,27.85,LEGACY_OCDS,DATA LIMITED,PART TIME,UNKNOWN,SFC_OBS,1
311,YAYE,ICAO,AYERS ROCK CONNELLAN,METAR,-25.186111,130.975556,UNAVAILABLE,DATA AVAILABLE,FULL TIME,PRIMARY AUTO,SFC_OBS,1
312,PTRO,ICAO,BABELTHUAP / KOROR AIRPORT,METAR,7.367303,134.544277,JMCLIM,DATA AVAILABLE,FULL TIME,UNKNOWN,SFC_OBS,1
313,EPBC,ICAO,BABICE,METAR,52.268494,20.911047,UNAVAILABLE,DATA LIMITED,PART TIME,UNKNOWN,SFC_OBS,1
314,EPZG,ICAO,BABIMOST,METAR,52.138517,15.798556,LEGACY_OCDS,DATA AVAILABLE,FULL TIME,UNKNOWN,SFC_OBS,1
315,SBBI,ICAO,BACACHERI,METAR,-25.405078,-49.232036,LEGACY_OCDS,DATA LIMITED,PART TIME,UNKNOWN,SFC_OBS,1
316,LRBC,ICAO,BACAU,METAR,46.521946,26.910278,JMCLIM,DATA AVAILABLE,FULL TIME,UNKNOWN,SFC_OBS,1
317,KAMG,ICAO,BACON CO,METAR,31.536056,-82.506556,UNAVAILABLE,DATA AVAILABLE,FULL TIME,PRIMARY AUTO,SFC_OBS,1
318,VEBD,ICAO,BAGDOGRA,METAR,26.681206,88.328567,LEGACY_OCDS,DATA LIMITED,PART TIME,UNKNOWN,SFC_OBS,1
319,ORBI,ICAO,BAGHDAD INTL AIRPORT,METAR,33.2666666,44.2333333,LIMCLIM,DATA AVAILABLE,FULL TIME,UNKNOWN,SFC_OBS,1
320,CYBG,ICAO,BAGOTVILLE,METAR,48.330555,-70.996391,JMCLIM,DATA AVAILABLE,FULL TIME,UNKNOWN,SFC_OBS,1
321,OAIX,ICAO,BAGRAM,METAR,34.946389,69.265,JMCLIM,DATA AVAILABLE,FULL TIME,PRIMARY AUGMENTED,SFC_OBS,1
322,MMBT,ICAO,BAHIAS DE HUATULCO INTL,METAR,15.775317,-96.262572,LEGACY_OCDS,DATA LIMITED,PART TIME,UNKNOWN,SFC_OBS,1
323,OBBI,ICAO,BAHRAIN INTL,METAR,26.270834000000004,50.63361,JMCLIM,DATA AVAILABLE,FULL TIME,UNKNOWN,SFC_OBS,1
324,CYBC,ICAO,BAIE COMEAU,METAR,49.1333333,-68.2,LEGACY_OCDS,DATA AVAILABLE,FULL TIME,PRIMARY AUTO,SFC_OBS,1
325,ZBHH,ICAO,BAITA,METAR,40.851422,111.824103,JMCLIM,DATA LIMITED,FULL TIME,UNKNOWN,SFC_OBS,1
326,ZGGG,ICAO,BAIYUN INTL,METAR,23.392436,113.298786,JMCLIM,DATA AVAILABLE,FULL TIME,UNKNOWN,SFC_OBS,1
327,KBKE,ICAO,BAKER CITY MUNI,METAR,44.837333,-117.809083,JMCLIM,DATA AVAILABLE,FULL TIME,PRIMARY AUTO,SFC_OBS,1
328,CYBK,ICAO,BAKER LAKE,METAR,64.298889,-96.077778,LEGACY_OCDS,DATA AVAILABLE,FULL TIME,UNKNOWN,SFC_OBS,1
329,KBHK,ICAO,BAKER MUNI,METAR,46.347637,-104.259447,LEGACY_OCDS,DATA AVAILABLE,FULL TIME,PRIMARY AUTO,SFC_OBS,1
330,ORBD,ICAO,BALAD AB,METAR,33.940194,44.361583,LIMCLIM,DATA AVAILABLE,FULL TIME,UNKNOWN,SFC_OBS,1
331,USCC,ICAO,BALANDINO,METAR,55.305836,61.503333,JMCLIM,DATA AVAILABLE,FULL TIME,UNKNOWN,SFC_OBS,1
332,LHSM,ICAO,BALATON,METAR,46.686389,17.159056,UNAVAILABLE,DATA AVAILABLE,FULL TIME,PRIMARY AUTO,SFC_OBS,1
333,LBWB,ICAO,BALCHICK AB,METAR,43.4166666,28.1833333,UNAVAILABLE,DATA LIMITED,PART TIME,UNKNOWN,SFC_OBS,1
334,KMLJ,ICAO,BALDWIN CO,METAR,33.154167,-83.24069399999999,LEGACY_OCDS,DATA AVAILABLE,FULL TIME,PRIMARY AUTO,SFC_OBS,1
335,LFSB,ICAO,BALE MULHOUSE,METAR,47.589583000000005,7.529914,JMCLIM,DATA AVAILABLE,FULL TIME,UNKNOWN,SFC_OBS,1
336,WADD,ICAO,BALI INTL,METAR,-8.748169,115.167172,JMCLIM,DATA AVAILABLE,FULL TIME,UNKNOWN,SFC_OBS,1
337,EPKK,ICAO,BALICE,METAR,50.077731,19.784836,JMCLIM,DATA AVAILABLE,FULL TIME,UNKNOWN,SFC_OBS,1
338,LTBF,ICAO,BALIKESIR,METAR,39.619258,27.925958,JMCLIM,DATA AVAILABLE,FULL TIME,UNKNOWN,SFC_OBS,1
339,UAAH,ICAO,BALKHASH,METAR,46.893333,75.005,UNAVAILABLE,DATA LIMITED,PART TIME,UNKNOWN,SFC_OBS,1
340,YBNA,ICAO,BALLINA BYRON GATEWAY,METAR,-28.833889000000003,153.5625,UNAVAILABLE,DATA AVAILABLE,FULL TIME,PRIMARY AUTO,SFC_OBS,1
341,SCBA,ICAO,BALMACEDA,METAR,-45.916058,-71.689475,JMCLIM,DATA AVAILABLE,FULL TIME,UNKNOWN,SFC_OBS,1
342,KBWI,ICAO,BALTIMORE WASHINGTON INTL,METAR,39.175361,-76.66833299999999,JMCLIM,DATA AVAILABLE,FULL TIME,UNKNOWN,SFC_OBS,1
343,ENNA,ICAO,BANAK,METAR,70.068814,24.973489,JMCLIM,DATA AVAILABLE,FULL TIME,PRIMARY AUTO,SFC_OBS,1
344,OIKB,ICAO,BANDAR ABBASS INTL,METAR,27.218169,56.377875,JMCLIM,DATA AVAILABLE,FULL TIME,UNKNOWN,SFC_OBS,1
345,OIBL,ICAO,BANDAR LENGEH,METAR,26.532,54.824847,JMCLIM,DATA LIMITED,PART TIME,UNKNOWN,SFC_OBS,1
346,VCBI,ICAO,BANDARANAIKE INTL COLOMBO,METAR,7.180861,79.865833,LIMCLIM,DATA AVAILABLE,FULL TIME,UNKNOWN,SFC_OBS,1
347,FMCI,ICAO,BANDARESSALAM,METAR,-12.298108,43.7664,UNAVAILABLE,DATA INCOMPLETE,PART TIME,UNKNOWN,SFC_OBS,1
348,LTBG,ICAO,BANDIRMA,METAR,40.317972,27.977694,LEGACY_OCDS,DATA LIMITED,FULL TIME,UNKNOWN,SFC_OBS,1
349,VOBG,ICAO,BANGALORE,METAR,12.949986,77.66820600000001,UNAVAILABLE,DATA AVAILABLE,FULL TIME,UNKNOWN,SFC_OBS,1
350,VOBL,ICAO,BANGALURU INTL AIRPORT,METAR,13.2,77.7,UNAVAILABLE,DATA AVAILABLE,FULL TIME,UNKNOWN,SFC_OBS,1
351,VTBD,ICAO,BANGKOK INTL,METAR,13.912582999999998,100.60675,JMCLIM,DATA AVAILABLE,FULL TIME,UNKNOWN,SFC_OBS,1
352,FZIC,ICAO,BANGOKA INTL,METAR,0.481639,25.337973,UNAVAILABLE,DATA LIMITED,PART TIME,UNKNOWN,SFC_OBS,1
353,KBGR,ICAO,BANGOR INTL,METAR,44.807444,-68.82813900000001,JMCLIM,DATA AVAILABLE,FULL TIME,UNKNOWN,SFC_OBS,1
354,FEFF,ICAO,BANGUI M POKO,METAR,4.398475,18.518786,LIMCLIM,DATA LIMITED,PART TIME,UNKNOWN,SFC_OBS,1
355,LQBK,ICAO,BANJA LUKA,METAR,44.941444,17.297501,JMCLIM,DATA AVAILABLE,FULL TIME,UNKNOWN,SFC_OBS,1
356,GBYD,ICAO,BANJUL INTL,METAR,13.337960999999998,-16.652206,JMCLIM,DATA LIMITED,FULL TIME,UNKNOWN,SFC_OBS,1
357,ZGSZ,ICAO,BAOAN INTL,METAR,22.639258,113.810664,JMCLIM,DATA AVAILABLE,FULL TIME,UNKNOWN,SFC_OBS,1
358,KDLL,ICAO,BARABOO WISONSIN DELLS,METAR,43.521953,-89.770903,LEGACY_OCDS,DATA AVAILABLE,FULL TIME,PRIMARY AUTO,SFC_OBS,1
359,LEMD,ICAO,BARAJAS,METAR,40.493556,-3.566764,JMCLIM,DATA AVAILABLE,FULL TIME,UNKNOWN,SFC_OBS,1
360,LFQB,ICAO,BARBEREY,METAR,48.322136,4.016703,LEGACY_OCDS,DATA AVAILABLE,FULL TIME,PRIMARY AUTO,SFC_OBS,1
361,LEBL,ICAO,BARCELONA,METAR,41.297078000000006,2.078464,JMCLIM,DATA AVAILABLE,FULL TIME,UNKNOWN,SFC_OBS,1
362,LEBR,ICAO,BARDENAS REALES,METAR,42.2,-1.45,UNAVAILABLE,DATA AVAILABLE,FULL TIME,PRIMARY AUTO,SFC_OBS,1
363,ENDU,ICAO,BARDUFOSS,METAR,69.055758,18.540356,JMCLIM,DATA AVAILABLE,FULL TIME,PRIMARY AUTO,SFC_OBS,1
364,LIBD,ICAO,BARI,METAR,41.1333333,16.7666666,JMCLIM,DATA AVAILABLE,FULL TIME,UNKNOWN,SFC_OBS,1
365,PHBK,ICAO,BARKING SANDS PMRF,METAR,22.022833,-159.785,JMCLIM,DATA AVAILABLE,FULL TIME,PRIMARY AUTO,SFC_OBS,1
366,KPAH,ICAO,BARKLEY RGNL,METAR,37.060833,-88.77375,LEGACY_OCDS,DATA AVAILABLE,FULL TIME,UNKNOWN,SFC_OBS,1
367,KBAD,ICAO,BARKSDALE AFB,METAR,32.50182,-93.662674,JMCLIM,DATA AVAILABLE,FULL TIME,PRIMARY AUTO,SFC_OBS,1
368,EGYE,ICAO,BARKSTON HEATH,METAR,52.962225,-0.561625,UNAVAILABLE,DATA INCOMPLETE,PART TIME,UNKNOWN,SFC_OBS,1
369,UNBB,ICAO,BARNAUL,METAR,53.363775,83.538533,JMCLIM,DATA AVAILABLE,FULL TIME,UNKNOWN,SFC_OBS,1
370,KBAC,ICAO,BARNES CO MUNI,METAR,46.941008,-98.017625,UNAVAILABLE,DATA AVAILABLE,FULL TIME,PRIMARY AUTO,SFC_OBS,1
371,KBAF,ICAO,BARNES MUNI,METAR,42.157776,-72.715553,JMCLIM,DATA AVAILABLE,FULL TIME,UNKNOWN,SFC_OBS,1
372,KHYA,ICAO,BARNSTABLE MUNI BOARDMAN POLANDO FLD,METAR,41.669336,-70.28035600000001,JMCLIM,DATA AVAILABLE,FULL TIME,UNKNOWN,SFC_OBS,1
373,KBNL,ICAO,BARNWELL CO,METAR,33.257778,-81.388339,LIMCLIM,DATA AVAILABLE,FULL TIME,PRIMARY AUTO,SFC_OBS,1
374,SVBM,ICAO,BARQUISIMETO INTL,METAR,10.042747,-69.35861899999999,LIMCLIM,DATA LIMITED,PART TIME,UNKNOWN,SFC_OBS,1
375,SBBW,ICAO,BARRA DO GARCAS,METAR,-15.861344,-52.388894,LEGACY_OCDS,DATA LIMITED,PART TIME,UNKNOWN,SFC_OBS,1
376,CXBD,ICAO,BARRHEAD CS,METAR,54.1,-114.45,UNAVAILABLE,DATA INCOMPLETE,FULL TIME,UNKNOWN,SFC_OBS,1
377,CXBI,ICAO,BARRIE-ORO,METAR,44.48,-79.55,UNAVAILABLE,DATA INCOMPLETE,FULL TIME,UNKNOWN,SFC_OBS,1
378,CXBI,ICAO,BARRIE-ORO,METAR,44.48,-79.55,UNAVAILABLE,DATA INCOMPLETE,FULL TIME,PRIMARY AUTO,SFC_OBS,1
379,YBWX,ICAO,BARROW ISLAND,METAR,-20.864444,115.406111,UNAVAILABLE,DATA INCOMPLETE,FULL TIME,PRIMARY AUTO,SFC_OBS,1
380,KDAG,ICAO,BARSTOW DAGGETT,METAR,34.853714000000004,-116.78669,JMCLIM,DATA AVAILABLE,FULL TIME,PRIMARY AUTO,SFC_OBS,1
381,PABA,ICAO,BARTER ISLAND LRRS,METAR,70.133903,-143.577044,JMCLIM,DATA AVAILABLE,FULL TIME,UNKNOWN,SFC_OBS,1
382,KBVO,ICAO,BARTLESVILLE MUNI,METAR,36.762475,-96.011153,LEGACY_OCDS,DATA AVAILABLE,FULL TIME,PRIMARY AUTO,SFC_OBS,1
383,SBCP,ICAO,BARTOLOMEU LISANDRO,METAR,-21.698333,-41.301669,LEGACY_OCDS,DATA LIMITED,PART TIME,UNKNOWN,SFC_OBS,1
384,KBOW,ICAO,BARTOW MUNI,METAR,27.943361,-81.78343100000001,LEGACY_OCDS,DATA AVAILABLE,FULL TIME,PRIMARY AUTO,SFC_OBS,1
385,K9A5,ICAO,BARWICK LAFAYETTE,METAR,34.688564,-85.290447,UNAVAILABLE,DATA AVAILABLE,FULL TIME,PRIMARY AUTO,SFC_OBS,1
386,SBAN,ICAO,BASE AEREA,METAR,-16.229153,-48.964267,LEGACY_OCDS,DATA AVAILABLE,FULL TIME,UNKNOWN,SFC_OBS,1
387,SBST,ICAO,BASE AEREA DE SANTOS,METAR,-23.925206,-46.2875,LEGACY_OCDS,DATA LIMITED,PART TIME,UNKNOWN,SFC_OBS,1
388,ORMM,ICAO,BASRAH INTL,METAR,30.549069,47.662142,JMCLIM,DATA LIMITED,FULL TIME,UNKNOWN,SFC_OBS,1
389,GMFM,ICAO,BASSATINE,METAR,33.879067,-5.515125,JMCLIM,DATA LIMITED,FULL TIME,UNKNOWN,SFC_OBS,1
390,OSLK,ICAO,BASSEL AL ASSAD INTL,METAR,35.401094,35.948681,JMCLIM,DATA LIMITED,FULL TIME,UNKNOWN,SFC_OBS,1
391,OMAD,ICAO,BATEEN,METAR,24.428333,54.458084,LIMCLIM,DATA LIMITED,FULL TIME,UNKNOWN,SFC_OBS,1
392,KBVX,ICAO,BATESVILLE RGNL,METAR,35.726189,-91.647281,JMCLIM,DATA AVAILABLE,FULL TIME,PRIMARY AUTO,SFC_OBS,1
393,CZBF,ICAO,BATHURST,METAR,47.629723,-65.738889,LEGACY_OCDS,DATA AVAILABLE,FULL TIME,PRIMARY AUTO,SFC_OBS,1
394,LTCJ,ICAO,BATMAN,METAR,37.928969,41.116583,LIMCLIM,DATA AVAILABLE,FULL TIME,UNKNOWN,SFC_OBS,1
395,DABT,ICAO,BATNA,METAR,35.75210560000001,6.3085889,LEGACY_OCDS,DATA LIMITED,FULL TIME,UNKNOWN,SFC_OBS,1
396,KBTR,ICAO,BATON ROUGE METRO RYAN FLD,METAR,30.533167,-91.149639,JMCLIM,DATA AVAILABLE,FULL TIME,UNKNOWN,SFC_OBS,1
397,ENBS,ICAO,BATSFJORD,METAR,70.600256,29.692678000000004,LEGACY_OCDS,DATA LIMITED,PART TIME,UNKNOWN,SFC_OBS,1
398,KBAM,ICAO,BATTLE MOUNTAIN,METAR,40.599047,-116.874336,LEGACY_OCDS,DATA AVAILABLE,FULL TIME,PRIMARY AUTO,SFC_OBS,1
399,UGSB,ICAO,BATUMI,METAR,41.610278,41.599694,LIMCLIM,DATA AVAILABLE,FULL TIME,UNKNOWN,SFC_OBS,1
400,KBDE,ICAO,BAUDETTE INTL,METAR,48.728444,-94.612222,LEGACY_OCDS,DATA AVAILABLE,FULL TIME,PRIMARY AUTO,SFC_OBS,1
401,ETEK,ICAO,BAUMHOLDER AAF,METAR,49.650275,7.3,MINCLIM,DATA AVAILABLE,FULL TIME,PRIMARY AUTO,SFC_OBS,1
402,SBBU,ICAO,BAURU,METAR,-22.345042000000003,-49.0538,LEGACY_OCDS,DATA LIMITED,FULL TIME,UNKNOWN,SFC_OBS,1
403,KBHC,ICAO,BAXLEY MUNI,METAR,31.713833,-82.393778,UNAVAILABLE,DATA AVAILABLE,FULL TIME,PRIMARY AUTO,SFC_OBS,1
404,KBYY,ICAO,BAY CITY MUNI,METAR,28.973256,-95.863456,LEGACY_OCDS,DATA AVAILABLE,FULL TIME,PRIMARY AUTO,SFC_OBS,1
405,K20U,ICAO,BEACH,METAR,46.925167,-103.982053,UNAVAILABLE,DATA AVAILABLE,FULL TIME,PRIMARY AUTO,SFC_OBS,1
406,KBAB,ICAO,BEALE AFB,METAR,39.136089,-121.436567,JMCLIM,DATA AVAILABLE,FULL TIME,PRIMARY AUTO,SFC_OBS,1
407,K1U7,ICAO,BEAR LAKE CO,METAR,42.24715,-111.33826,UNAVAILABLE,DATA AVAILABLE,FULL TIME,PRIMARY AUTO,SFC_OBS,1
408,KBIE,ICAO,BEATRICE MUNI,METAR,40.301277,-96.754112,LEGACY_OCDS,DATA AVAILABLE,FULL TIME,PRIMARY AUTO,SFC_OBS,1
409,KARW,ICAO,BEAUFORT,METAR,32.4,-80.6333333,UNAVAILABLE,DATA AVAILABLE,FULL TIME,PRIMARY AUTO,SFC_OBS,1
410,KNBC,ICAO,BEAUFORT MCAS,METAR,32.477411,-80.723161,JMCLIM,DATA LIMITED,FULL TIME,UNKNOWN,SFC_OBS,1
411,KBMT,ICAO,BEAUMONT MUNI,METAR,30.070686,-94.215847,UNAVAILABLE,DATA AVAILABLE,FULL TIME,PRIMARY AUTO,SFC_OBS,1
412,KDRI,ICAO,BEAUREGARD RGNL,METAR,30.831722,-93.339917,LEGACY_OCDS,DATA AVAILABLE,FULL TIME,PRIMARY AUTO,SFC_OBS,1
413,EBBE,ICAO,BEAUVECHAIN,METAR,50.75861,4.768333,JMCLIM,DATA AVAILABLE,FULL TIME,PRIMARY AUTO,SFC_OBS,1
414,KBVI,ICAO,BEAVER CO,METAR,40.772499,-80.391388,LEGACY_OCDS,DATA LIMITED,PART TIME,UNKNOWN,SFC_OBS,1
415,CYXQ,ICAO,BEAVER CREEK ARPT,METAR,62.4166667,-140.8666667,LEGACY_OCDS,DATA LIMITED,PART TIME,UNKNOWN,SFC_OBS,1
416,KSJX,ICAO,BEAVER ISLAND,METAR,45.692264,-85.566611,LEGACY_OCDS,DATA AVAILABLE,FULL TIME,PRIMARY AUTO,SFC_OBS,1
417,DAOR,ICAO,BECHAR,METAR,31.645744,-2.269861,JMCLIM,DATA AVAILABLE,FULL TIME,UNKNOWN,SFC_OBS,1
418,LKBC,ICAO,BECHYNE ARPT,METAR,49.27356,14.50171,UNAVAILABLE,DATA AVAILABLE,FULL TIME,PRIMARY AUTO,SFC_OBS,1
419,KHMZ,ICAO,BEDFORD CO,METAR,40.085278,-78.512222,UNAVAILABLE,DATA AVAILABLE,FULL TIME,PRIMARY AUTO,SFC_OBS,1
420,KBEC,ICAO,BEECH FACTORY,METAR,37.694475,-97.214989,UNAVAILABLE,DATA AVAILABLE,FULL TIME,PRIMARY AUTO,SFC_OBS,1
421,KBEA,ICAO,BEEVILLE MUNI,METAR,28.35,-97.7166666,UNAVAILABLE,DATA AVAILABLE,FULL TIME,PRIMARY AUTO,SFC_OBS,1
422,UWKE,ICAO,BEGISHEVO,METAR,55.564686,52.092511,JMCLIM,DATA AVAILABLE,FULL TIME,UNKNOWN,SFC_OBS,1
423,VOHY,ICAO,BEGUMPET AIRPORT,METAR,17.452417,78.461111,JMCLIM,DATA AVAILABLE,FULL TIME,UNKNOWN,SFC_OBS,1
424,ZBAA,ICAO,BEIJING - CAPITAL INTERNATIONAL AIRPORT,METAR,40.080111,116.584556,JMCLIM,DATA AVAILABLE,FULL TIME,UNKNOWN,SFC_OBS,1
425,FQBR,ICAO,BEIRA,METAR,-19.796419,34.907556,LEGACY_OCDS,DATA LIMITED,PART TIME,UNKNOWN,SFC_OBS,1
426,LPBJ,ICAO,BEJA,METAR,38.078903,-7.932397,JMCLIM,DATA LIMITED,FULL TIME,UNKNOWN,SFC_OBS,1
427,LHBC,ICAO,BEKESCSABA,METAR,46.6833333,21.1666667,LEGACY_OCDS,DATA LIMITED,PART TIME,UNKNOWN,SFC_OBS,1
428,KBRG,ICAO,BELEN RGNL ARPT,METAR,34.6458616,-106.83634,UNAVAILABLE,DATA AVAILABLE,FULL TIME,PRIMARY AUTO,SFC_OBS,1
429,VOBM,ICAO,BELGAUM AIRPORT,METAR,15.85,74.6166666,UNAVAILABLE,DATA LIMITED,PART TIME,UNKNOWN,SFC_OBS,1
430,UUOB,ICAO,BELGOROD,METAR,50.643764,36.590125,UNAVAILABLE,DATA AVAILABLE,FULL TIME,UNKNOWN,SFC_OBS,1
431,CBBC,ICAO,BELLA BELLA CAMPBELL,METAR,52.1833333,-128.15,UNAVAILABLE,DATA AVAILABLE,FULL TIME,PRIMARY AUTO,SFC_OBS,1
432,CYBD,ICAO,BELLA COOLA,METAR,52.387501,-126.595833,LEGACY_OCDS,DATA LIMITED,PART TIME,UNKNOWN,SFC_OBS,1
433,KEDJ,ICAO,BELLEFONTAINE RGNL,METAR,40.372314,-83.819017,UNAVAILABLE,DATA AVAILABLE,FULL TIME,PRIMARY AUTO,SFC_OBS,1
434,LFBL,ICAO,BELLEGARDE,METAR,45.862778000000006,1.1794440000000002,JMCLIM,DATA AVAILABLE,FULL TIME,PRIMARY AUTO,SFC_OBS,1
435,KBLI,ICAO,BELLINGHAM INTL,METAR,48.79275,-122.537528,JMCLIM,DATA AVAILABLE,FULL TIME,UNKNOWN,SFC_OBS,1
436,CPBL,ICAO,BELLSHILL AGCM,METAR,52.5833333,-111.4666666,UNAVAILABLE,DATA INCOMPLETE,FULL TIME,UNKNOWN,SFC_OBS,1
437,KBJI,ICAO,BEMIDJI RGNL,METAR,47.509425,-94.933723,JMCLIM,DATA AVAILABLE,FULL TIME,PRIMARY AUTO,SFC_OBS,1
438,LLBG,ICAO,BEN GURION,METAR,32.011389,34.886667,JMCLIM,DATA AVAILABLE,FULL TIME,UNKNOWN,SFC_OBS,1
439,GMMB,ICAO,BEN SLIMANE,METAR,33.0065,-7.2166666,UNAVAILABLE,DATA LIMITED,FULL TIME,UNKNOWN,SFC_OBS,1
440,EGPL,ICAO,BENBECULA,METAR,57.481111,-7.362778,JMCLIM,DATA AVAILABLE,FULL TIME,PRIMARY AUTO,SFC_OBS,1
441,KBDN,ICAO,BEND MUNI AIRPORT,METAR,44.09455560000001,-121.200222,UNAVAILABLE,DATA AVAILABLE,FULL TIME,PRIMARY AUTO,SFC_OBS,1
442,FNBG,ICAO,BENGUELA,METAR,-12.609025,13.403711,UNAVAILABLE,DATA LIMITED,PART TIME,UNKNOWN,SFC_OBS,1
443,SKNV,ICAO,BENITO SALAS,METAR,2.9502580000000003,-75.294072,LEGACY_OCDS,DATA LIMITED,PART TIME,UNKNOWN,SFC_OBS,1
444,EGUB,ICAO,BENSON,METAR,51.616389,-1.095833,JMCLIM,DATA AVAILABLE,FULL TIME,PRIMARY AUTO,SFC_OBS,1
445,KBBB,ICAO,BENSON MUNI,METAR,45.331932,-95.650564,LEGACY_OCDS,DATA AVAILABLE,FULL TIME,PRIMARY AUTO,SFC_OBS,1
446,KVBT,ICAO,BENTONVILLE MUNI LOUISE M THADEN FLD,METAR,36.345717,-94.219345,LEGACY_OCDS,DATA AVAILABLE,FULL TIME,PRIMARY AUTO,SFC_OBS,1
447,LYBE,ICAO,BEOGRAD,METAR,44.818444,20.309139,JMCLIM,DATA AVAILABLE,FULL TIME,UNKNOWN,SFC_OBS,1
448,LYBT,ICAO,BEOGRAD/BATAJNICA,METAR,44.935331,20.257506,UNAVAILABLE,DATA AVAILABLE,FULL TIME,UNKNOWN,SFC_OBS,1
449,FEFT,ICAO,BERBERATI,METAR,4.221583,15.786369,LEGACY_OCDS,DATA INCOMPLETE,PART TIME,UNKNOWN,SFC_OBS,1
450,CYBV,ICAO,BERENS RIVER,METAR,52.35,-97.0333333,UNAVAILABLE,DATA LIMITED,PART TIME,UNKNOWN,SFC_OBS,1
451,LIME,ICAO,BERGAMO ORIO AL SERIO,METAR,45.673889,9.704166,JMCLIM,DATA AVAILABLE,FULL TIME,UNKNOWN,SFC_OBS,1
452,ENBV,ICAO,BERLEVAG,METAR,70.8666667,29.0333333,LEGACY_OCDS,DATA LIMITED,PART TIME,UNKNOWN,SFC_OBS,1
453,KBML,ICAO,BERLIN MUNI,METAR,44.575372,-71.175931,LEGACY_OCDS,DATA AVAILABLE,FULL TIME,PRIMARY AUTO,SFC_OBS,1
454,TXKF,ICAO,BERMUDA INTL,METAR,32.364042,-64.678703,JMCLIM,DATA AVAILABLE,FULL TIME,UNKNOWN,SFC_OBS,1
455,LSZB,ICAO,BERN BELP,METAR,46.9141,7.497153,JMCLIM,DATA AVAILABLE,FULL TIME,PRIMARY AUTO,SFC_OBS,1
456,KBTM,ICAO,BERT MOONEY,METAR,45.954806,-112.497472,JMCLIM,DATA AVAILABLE,FULL TIME,PRIMARY AUTO,SFC_OBS,1
457,K0CO,ICAO,BERTHOUD PASS,METAR,39.79453,-105.76393,UNAVAILABLE,DATA INCOMPLETE,FULL TIME,PRIMARY AUTO,SFC_OBS,1
458,URMO,ICAO,BESLAN,METAR,43.205114,44.606642,UNAVAILABLE,DATA AVAILABLE,FULL TIME,UNKNOWN,SFC_OBS,1
459,KEKY,ICAO,BESSEMER AIPORT,METAR,33.312883,-86.925919,UNAVAILABLE,DATA AVAILABLE,FULL TIME,PRIMARY AUTO,SFC_OBS,1
460,PABE,ICAO,BETHEL,METAR,60.779778,-161.837997,JMCLIM,DATA AVAILABLE,FULL TIME,UNKNOWN,SFC_OBS,1
461,PABT,ICAO,BETTLES,METAR,66.913944,-151.529056,JMCLIM,DATA AVAILABLE,FULL TIME,UNKNOWN,SFC_OBS,1
462,KBVY,ICAO,BEVERLY MUNI,METAR,42.584167,-70.916528,UNAVAILABLE,DATA AVAILABLE,FULL TIME,UNKNOWN,SFC_OBS,1
463,LBIA,ICAO,BEZMER AB,METAR,42.45,26.35,UNAVAILABLE,DATA AVAILABLE,FULL TIME,UNKNOWN,SFC_OBS,1
464,VABV,ICAO,BHAVNAGAR,METAR,21.752206,72.185181,UNAVAILABLE,DATA LIMITED,PART TIME,UNKNOWN,SFC_OBS,1
465,VABP,ICAO,BHOPAL,METAR,23.287467000000003,77.337375,LIMCLIM,DATA AVAILABLE,FULL TIME,UNKNOWN,SFC_OBS,1
466,VEBS,ICAO,BHUBANESHWAR,METAR,20.244364,85.81778100000001,LIMCLIM,DATA AVAILABLE,FULL TIME,UNKNOWN,SFC_OBS,1
467,LFBI,ICAO,BIARD,METAR,46.587745,0.306666,LEGACY_OCDS,DATA AVAILABLE,FULL TIME,PRIMARY AUTO,SFC_OBS,1
468,KBYS,ICAO,BICYCLE LAKE AAF / FT IRWIN CALIFORNIA USA,METAR,35.280531,-116.630031,LIMCLIM,DATA AVAILABLE,FULL TIME,PRIMARY AUTO,SFC_OBS,1
469,KL35,ICAO,BIG BEAR CITY,METAR,34.263619,-116.854475,UNAVAILABLE,DATA AVAILABLE,FULL TIME,PRIMARY AUTO,SFC_OBS,1
470,KBPI,ICAO,BIG PINEY MARBLETON,METAR,42.585069,-110.111153,JMCLIM,DATA AVAILABLE,FULL TIME,PRIMARY AUTO,SFC_OBS,1
471,KSJS,ICAO,BIG SANDY RGNL AIRPORT,METAR,37.7510278,-82.63669399999999,UNAVAILABLE,DATA AVAILABLE,FULL TIME,PRIMARY AUTO,SFC_OBS,1
472,KBPG,ICAO,BIG SPRING MCMAHON WRINKLE,METAR,32.212610999999995,-101.521639,LEGACY_OCDS,DATA AVAILABLE,FULL TIME,PRIMARY AUTO,SFC_OBS,1
473,K6S0,ICAO,BIG TIMBER,METAR,45.806389,-109.981111,UNAVAILABLE,DATA AVAILABLE,FULL TIME,PRIMARY AUTO,SFC_OBS,1
474,CYTL,ICAO,BIG TROUT LAKE,METAR,53.8333333,-89.8666667,UNAVAILABLE,DATA AVAILABLE,FULL TIME,PRIMARY AUTO,SFC_OBS,1
475,KFOZ,ICAO,BIGFORK MUNI,METAR,47.782833,-93.650194,JMCLIM,DATA AVAILABLE,FULL TIME,PRIMARY AUTO,SFC_OBS,1
476,EGKB,ICAO,BIGGIN HILL,METAR,51.330833,0.0325,LEGACY_OCDS,DATA AVAILABLE,FULL TIME,UNKNOWN,SFC_OBS,1
477,KBIF,ICAO,BIGGS AAF / FT BLISS TEXAS USA,METAR,31.849528000000003,-106.380039,LIMCLIM,DATA AVAILABLE,FULL TIME,PRIMARY AUTO,SFC_OBS,1
478,LEBB,ICAO,BILBAO,METAR,43.301097,-2.9106080000000003,JMCLIM,DATA AVAILABLE,FULL TIME,UNKNOWN,SFC_OBS,1
479,BIBD,ICAO,BILDUDALUR,METAR,65.64133100000001,-23.546169,UNAVAILABLE,DATA LIMITED,PART TIME,UNKNOWN,SFC_OBS,1
480,KBIL,ICAO,BILLINGS LOGAN INTL,METAR,45.807667,-108.542889,JMCLIM,DATA AVAILABLE,FULL TIME,UNKNOWN,SFC_OBS,1
481,EKBI,ICAO,BILLUND,METAR,55.740322,9.151778,JMCLIM,DATA AVAILABLE,FULL TIME,PRIMARY AUTO,SFC_OBS,1
482,KHSE,ICAO,BILLY MITCHELL,METAR,35.232786,-75.61779399999999,UNAVAILABLE,DATA AVAILABLE,FULL TIME,PRIMARY AUTO,SFC_OBS,1
483,ZBTJ,ICAO,BINHAI,METAR,39.124353,117.346183,JMCLIM,DATA AVAILABLE,FULL TIME,UNKNOWN,SFC_OBS,1
484,WBGB,ICAO,BINTULU,METAR,3.12385,113.020472,JMCLIM,DATA AVAILABLE,FULL TIME,UNKNOWN,SFC_OBS,1
485,PABV,ICAO,BIRCHWOOD,METAR,61.416489,-149.50735,JMCLIM,DATA AVAILABLE,FULL TIME,PRIMARY AUTO,SFC_OBS,1
486,YBDV,ICAO,BIRDSVILLE,METAR,-25.8975,139.3475,UNAVAILABLE,DATA INCOMPLETE,FULL TIME,PRIMARY AUTO,SFC_OBS,1
487,OIMB,ICAO,BIRJAND,METAR,32.898056,59.266111,JMCLIM,DATA AVAILABLE,FULL TIME,UNKNOWN,SFC_OBS,1
488,EGBB,ICAO,BIRMINGHAM,METAR,52.45385600000001,-1.748028,JMCLIM,DATA AVAILABLE,FULL TIME,UNKNOWN,SFC_OBS,1
489,KBHM,ICAO,BIRMINGHAM INTL,METAR,33.562944,-86.75355,JMCLIM,DATA AVAILABLE,FULL TIME,UNKNOWN,SFC_OBS,1
490,VERC,ICAO,BIRSA MUNDA,METAR,23.31425,85.321675,JMCLIM,DATA AVAILABLE,FULL TIME,UNKNOWN,SFC_OBS,1
491,KDUG,ICAO,BISBEE DOUGLAS INTL,METAR,31.469028,-109.603667,JMCLIM,DATA AVAILABLE,FULL TIME,PRIMARY AUTO,SFC_OBS,1
492,LFWC,ICAO,BISCAROSSE / PARENTIS,METAR,44.4333333,-1.25,UNAVAILABLE,DATA AVAILABLE,FULL TIME,PRIMARY AUTO,SFC_OBS,1
493,OEBH,ICAO,BISHA,METAR,19.98435,42.620881,JMCLIM,DATA AVAILABLE,FULL TIME,UNKNOWN,SFC_OBS,1
494,KFNT,ICAO,BISHOP INTL,METAR,42.9655,-83.743472,LEGACY_OCDS,DATA AVAILABLE,FULL TIME,UNKNOWN,SFC_OBS,1
495,DAUB,ICAO,BISKRA,METAR,34.793289,5.738231,JMCLIM,DATA LIMITED,FULL TIME,UNKNOWN,SFC_OBS,1
496,KBIS,ICAO,BISMARCK MUNI,METAR,46.772733,-100.745739,JMCLIM,DATA AVAILABLE,FULL TIME,UNKNOWN,SFC_OBS,1
497,GGOV,ICAO,BISSAU OSWALDO VIEIRA INTL,METAR,11.89485,-15.653681,LEGACY_OCDS,DATA LIMITED,PART TIME,UNKNOWN,SFC_OBS,1
498,FOOB,ICAO,BITAM,METAR,2.075639,11.493195,LEGACY_OCDS,DATA INCOMPLETE,PART TIME,UNKNOWN,SFC_OBS,1
499,KSPF,ICAO,BLACK HILLS CLYDE ICE FLD,METAR,44.480322,-103.782958,UNAVAILABLE,DATA AVAILABLE,FULL TIME,PRIMARY AUTO,SFC_OBS,1
500,KBCK,ICAO,BLACK RIVER FALLS AREA,METAR,44.25074,-90.855281,UNAVAILABLE,DATA AVAILABLE,FULL TIME,PRIMARY AUTO,SFC_OBS,1
501,EGNH,ICAO,BLACKPOOL,METAR,53.771667,-3.028611,JMCLIM,DATA AVAILABLE,FULL TIME,UNKNOWN,SFC_OBS,1
502,KBKN,ICAO,BLACKWELL TONKAWA MUNI,METAR,36.75,-97.35,UNAVAILABLE,DATA AVAILABLE,FULL TIME,PRIMARY AUTO,SFC_OBS,1
503,LFBO,ICAO,BLAGNAC,METAR,43.629075,1.363819,LEGACY_OCDS,DATA AVAILABLE,FULL TIME,PRIMARY AUTO,SFC_OBS,1
504,KDZJ,ICAO,BLAIRSVILLE AIRPORT,METAR,34.85,-83.9833333,UNAVAILABLE,DATA AVAILABLE,FULL TIME,PRIMARY AUTO,SFC_OBS,1
505,GOBD,ICAO,BLAISE DIAGNE DIASS INTL,METAR,14.6666666,-17.0666666,UNAVAILABLE,DATA AVAILABLE,FULL TIME,UNKNOWN,SFC_OBS,1
506,KAJZ,ICAO,BLAKE FIELD / DELTA,METAR,38.7833333,-108.0666666,UNAVAILABLE,DATA AVAILABLE,FULL TIME,PRIMARY AUTO,SFC_OBS,1
507,CYBX,ICAO,BLANC SABLON A,METAR,51.45,-57.1833333,LEGACY_OCDS,DATA AVAILABLE,FULL TIME,UNKNOWN,SFC_OBS,1
508,KBDG,ICAO,BLANDING MUNI,METAR,37.583336,-109.48328899999998,UNAVAILABLE,DATA AVAILABLE,FULL TIME,PRIMARY AUTO,SFC_OBS,1
509,KBID,ICAO,BLOCK ISLAND,METAR,41.17,-71.57,JMCLIM,DATA AVAILABLE,FULL TIME,PRIMARY AUTO,SFC_OBS,1
510,KWBF,ICAO,BLOCK WR29,METAR,26.93,-90.5,UNAVAILABLE,DATA AVAILABLE,FULL TIME,PRIMARY AUTO,SFC_OBS,1
511,FABL,ICAO,BLOEMFONTEIN INTL,METAR,-29.092722,26.302444,JMCLIM,DATA LIMITED,FULL TIME,UNKNOWN,SFC_OBS,1
512,KCNK,ICAO,BLOSSER MUNI,METAR,39.549252,-97.652317,JMCLIM,DATA AVAILABLE,FULL TIME,PRIMARY AUTO,SFC_OBS,1
513,KBLU,ICAO,BLUE CANYON NYACK,METAR,39.274972,-120.70975,JMCLIM,DATA AVAILABLE,FULL TIME,PRIMARY AUTO,SFC_OBS,1
514,KLEX,ICAO,BLUE GRASS,METAR,38.0365,-84.605889,JMCLIM,DATA AVAILABLE,FULL TIME,UNKNOWN,SFC_OBS,1
515,KMTV,ICAO,BLUE RIDGE,METAR,36.63075,-80.018333,LEGACY_OCDS,DATA AVAILABLE,FULL TIME,PRIMARY AUTO,SFC_OBS,1
516,CYCP,ICAO,BLUE RIVER,METAR,52.116667,-119.283333,LEGACY_OCDS,DATA LIMITED,PART TIME,UNKNOWN,SFC_OBS,1
517,MNBL,ICAO,BLUEFIELDS,METAR,11.990961,-83.774086,LEGACY_OCDS,DATA LIMITED,PART TIME,UNKNOWN,SFC_OBS,1
518,KBLH,ICAO,BLYTHE,METAR,33.619164000000005,-114.71687,JMCLIM,DATA AVAILABLE,FULL TIME,PRIMARY AUTO,SFC_OBS,1
519,KHKA,ICAO,BLYTHEVILLE MUNI,METAR,35.940406,-89.83080600000001,UNAVAILABLE,DATA AVAILABLE,FULL TIME,PRIMARY AUTO,SFC_OBS,1
520,SBBV,ICAO,BOA VISTA,METAR,2.846311,-60.690069,JMCLIM,DATA AVAILABLE,FULL TIME,UNKNOWN,SFC_OBS,1
521,GVBA,ICAO,BOA VISTA RABIL,METAR,16.136531,-22.888897,UNAVAILABLE,DATA LIMITED,PART TIME,UNKNOWN,SFC_OBS,1
522,PAIK,ICAO,BOB BAKER MEM,METAR,66.975953,-160.436533,UNAVAILABLE,DATA AVAILABLE,FULL TIME,PRIMARY AUTO,SFC_OBS,1
523,KBUR,ICAO,BOB HOPE,METAR,34.200667,-118.358667,LEGACY_OCDS,DATA AVAILABLE,FULL TIME,UNKNOWN,SFC_OBS,1
524,KCEW,ICAO,BOB SIKES,METAR,30.778833,-86.522111,JMCLIM,DATA AVAILABLE,FULL TIME,PRIMARY AUTO,SFC_OBS,1
525,KHBG,ICAO,BOBBY L CHAIN MUNI,METAR,31.264781,-89.252842,LEGACY_OCDS,DATA AVAILABLE,FULL TIME,PRIMARY AUTO,SFC_OBS,1
526,DFOO,ICAO,BOBO DIOULASSO,METAR,11.160056,-4.3309690000000005,LIMCLIM,DATA LIMITED,FULL TIME,UNKNOWN,SFC_OBS,1
527,LRBO,ICAO,BOBOC AIR BASE,METAR,45.21,26.97,LIMCLIM,DATA LIMITED,PART TIME,UNKNOWN,SFC_OBS,1
528,KBCT,ICAO,BOCA RATON,METAR,26.378492,-80.107692,UNAVAILABLE,DATA LIMITED,PART TIME,UNKNOWN,SFC_OBS,1
529,MPBO,ICAO,BOCAS DEL TORO INTL,METAR,9.340853,-82.250842,UNAVAILABLE,NEW SITE,PART TIME,UNKNOWN,SFC_OBS,1
530,ENBO,ICAO,BODO,METAR,67.26916700000001,14.365278,JMCLIM,DATA AVAILABLE,FULL TIME,UNKNOWN,SFC_OBS,1
531,KBFI,ICAO,BOEING FLD KING CO INTL,METAR,47.53,-122.301947,JMCLIM,DATA AVAILABLE,FULL TIME,UNKNOWN,SFC_OBS,1
532,K5C1,ICAO,BOERNE STAGE FLD,METAR,29.723931,-98.694642,UNAVAILABLE,DATA AVAILABLE,FULL TIME,PRIMARY AUTO,SFC_OBS,1
533,KNJM,ICAO,BOGUE MCALF,METAR,34.690439000000005,-77.029667,LIMCLIM,DATA AVAILABLE,FULL TIME,PRIMARY AUTO,SFC_OBS,1
534,KASH,ICAO,BOIRE FLD,METAR,42.78175,-71.514778,UNAVAILABLE,DATA AVAILABLE,FULL TIME,UNKNOWN,SFC_OBS,1
535,KBOI,ICAO,BOISE AIR TERMINAL,METAR,43.564361,-116.222861,JMCLIM,DATA AVAILABLE,FULL TIME,UNKNOWN,SFC_OBS,1
536,OIMN,ICAO,BOJNORD,METAR,37.493003,57.308389,LIMCLIM,DATA AVAILABLE,FULL TIME,UNKNOWN,SFC_OBS,1
537,FZFG,ICAO,BOKADA ARPT,METAR,4.116666599999999,19.416666600000003,UNAVAILABLE,NEW SITE,PART TIME,UNKNOWN,SFC_OBS,1
538,HAAB,ICAO,BOLE INTL,METAR,8.977889,38.799319,MINCLIM,DATA LIMITED,PART TIME,UNKNOWN,SFC_OBS,1
539,KTVY,ICAO,BOLINDER FIELD TOOELE VALLEY,METAR,40.612272,-112.350772,UNAVAILABLE,DATA AVAILABLE,FULL TIME,PRIMARY AUTO,SFC_OBS,1
540,LIPE,ICAO,BOLOGNA,METAR,44.535444,11.288667,JMCLIM,DATA AVAILABLE,FULL TIME,UNKNOWN,SFC_OBS,1
541,USPP,ICAO,BOLSHOYE SAVINO,METAR,57.914517,56.021214,JMCLIM,DATA AVAILABLE,FULL TIME,UNKNOWN,SFC_OBS,1
542,KTZR,ICAO,BOLTON FLD,METAR,39.901167,-83.13690799999999,LEGACY_OCDS,DATA AVAILABLE,FULL TIME,PRIMARY AUTO,SFC_OBS,1
543,LIPB,ICAO,BOLZANO,METAR,46.460194,11.326383,LEGACY_OCDS,DATA LIMITED,PART TIME,UNKNOWN,SFC_OBS,1
544,SBLP,ICAO,BOM JESUS DA LAPA,METAR,-13.262085999999998,-43.408114000000005,LEGACY_OCDS,DATA INCOMPLETE,PART TIME,UNKNOWN,SFC_OBS,1
545,KSYI,ICAO,BOMAR FLD SHELBYVILLE MUNI,METAR,35.560101,-86.442494,UNAVAILABLE,DATA AVAILABLE,FULL TIME,PRIMARY AUTO,SFC_OBS,1
546,VAJJ,ICAO,BOMBAY / JUHU,METAR,19.1166667,72.83333329999999,UNAVAILABLE,DATA AVAILABLE,FULL TIME,UNKNOWN,SFC_OBS,1
547,CAVA,ICAO,BONAVISTA RCS,METAR,48.6666666,-53.1166666,LEGACY_OCDS,DATA INCOMPLETE,FULL TIME,UNKNOWN,SFC_OBS,1
548,LIBW,ICAO,BONIFATI (CAPE),METAR,39.5833333,15.883333300000002,LEGACY_OCDS,DATA LIMITED,PART TIME,UNKNOWN,SFC_OBS,1
549,NGTA,ICAO,BONRIKI INTL,METAR,1.381636,173.147036,LIMCLIM,DATA AVAILABLE,FULL TIME,UNKNOWN,SFC_OBS,1
550,KVAF,ICAO,BOOMVANG HELIPORT / OIL PLATFORM,METAR,27.35,-94.6333333,UNAVAILABLE,DATA AVAILABLE,FULL TIME,PRIMARY AUTO,SFC_OBS,1
551,KHRO,ICAO,BOONE CO,METAR,36.261519,-93.154728,JMCLIM,DATA AVAILABLE,FULL TIME,PRIMARY AUTO,SFC_OBS,1
552,KBNW,ICAO,BOONE MUNI,METAR,42.049569,-93.8476,LEGACY_OCDS,DATA AVAILABLE,FULL TIME,PRIMARY AUTO,SFC_OBS,1
553,KTNB,ICAO,BOONE WATAUGA COUNTY HOSPITAL,METAR,36.2,-81.65,LEGACY_OCDS,DATA AVAILABLE,FULL TIME,PRIMARY AUTO,SFC_OBS,1
554,KBVE,ICAO,BOOTHVILLE,METAR,29.33,-89.4,UNAVAILABLE,DATA AVAILABLE,FULL TIME,PRIMARY AUTO,SFC_OBS,1
555,KLNQ,ICAO,BOOTHVILLE ARPT,METAR,29.35264,-89.437904,UNAVAILABLE,DATA AVAILABLE,FULL TIME,PRIMARY AUTO,SFC_OBS,1
556,LRFT,ICAO,BORCEA FETESTI AIR BASE,METAR,44.3833333,27.716666600000003,MINCLIM,DATA LIMITED,PART TIME,UNKNOWN,SFC_OBS,1
557,CYBN,ICAO,BORDEN,METAR,44.25,-79.91666670000001,UNAVAILABLE,DATA AVAILABLE,FULL TIME,PRIMARY AUTO,SFC_OBS,1
558,DATM,ICAO,BORDJ MOKHTAR,METAR,21.3333333,0.95,UNAVAILABLE,DATA LIMITED,PART TIME,UNKNOWN,SFC_OBS,1
559,HEBA,ICAO,BORG EL ARAB INTL,METAR,30.917669,29.696408,LIMCLIM,DATA LIMITED,FULL TIME,UNKNOWN,SFC_OBS,1
560,ESSD,ICAO,BORLANGE,METAR,60.422017,15.515211,JMCLIM,DATA AVAILABLE,FULL TIME,PRIMARY AUTO,SFC_OBS,1
561,EKRN,ICAO,BORNHOLM RONNE,METAR,55.063267,14.759557999999998,JMCLIM,DATA AVAILABLE,FULL TIME,PRIMARY AUTO,SFC_OBS,1
562,OICJ,ICAO,BOROUJERD,METAR,34.9,48.63,MINCLIM,DATA LIMITED,PART TIME,UNKNOWN,SFC_OBS,1
563,KL08,ICAO,BORREGO VALLEY,METAR,33.259028,-116.320972,UNAVAILABLE,DATA AVAILABLE,FULL TIME,PRIMARY AUTO,SFC_OBS,1
564,UKBB,ICAO,BORYSPIL INTL,METAR,50.345,30.894722,JMCLIM,DATA AVAILABLE,FULL TIME,UNKNOWN,SFC_OBS,1
565,HCMF,ICAO,BOSASO,METAR,11.2833333,49.1833333,MINCLIM,DATA LIMITED,PART TIME,UNKNOWN,SFC_OBS,1
566,KOVS,ICAO,BOSCOBEL,METAR,43.160175,-90.675478,LEGACY_OCDS,DATA LIMITED,FULL TIME,PRIMARY AUTO,SFC_OBS,1
567,EGDM,ICAO,BOSCOMBE DOWN,METAR,51.152189,-1.747414,LEGACY_OCDS,DATA AVAILABLE,FULL TIME,PRIMARY AUTO,SFC_OBS,1
568,DAOB,ICAO,BOU CHEKIF,METAR,35.341136,1.463147,JMCLIM,DATA LIMITED,FULL TIME,UNKNOWN,SFC_OBS,1
569,DAAD,ICAO,BOU SAADA,METAR,35.3325,4.206389,LEGACY_OCDS,DATA LIMITED,PART TIME,UNKNOWN,SFC_OBS,1
570,DIBK,ICAO,BOUAKE,METAR,7.7388,-5.073667,LEGACY_OCDS,DATA AVAILABLE,FULL TIME,UNKNOWN,SFC_OBS,1
571,KBVU,ICAO,BOULDER CITY MUNI,METAR,35.947480299999995,-114.861096,UNAVAILABLE,DATA AVAILABLE,FULL TIME,PRIMARY AUTO,SFC_OBS,1
572,KBDU,ICAO,BOULDER MUNICIPAL AIRPORT,METAR,40.0394297,-105.225821,UNAVAILABLE,DATA AVAILABLE,FULL TIME,PRIMARY AUTO,SFC_OBS,1
573,EGQM,ICAO,BOULMER,METAR,55.424167,-1.603333,LEGACY_OCDS,DATA AVAILABLE,FULL TIME,PRIMARY AUTO,SFC_OBS,1
574,K65S,ICAO,BOUNDARY CO,METAR,48.725822,-116.295214,UNAVAILABLE,DATA AVAILABLE,FULL TIME,PRIMARY AUTO,SFC_OBS,1
575,EGHH,ICAO,BOURNEMOUTH,METAR,50.78,-1.8425,JMCLIM,DATA AVAILABLE,FULL TIME,UNKNOWN,SFC_OBS,1
576,LFMH,ICAO,BOUTHEON,METAR,45.540554,4.296389,LEGACY_OCDS,DATA AVAILABLE,FULL TIME,PRIMARY AUTO,SFC_OBS,1
577,KHQM,ICAO,BOWERMAN,METAR,46.971194,-123.936556,JMCLIM,DATA AVAILABLE,FULL TIME,PRIMARY AUTO,SFC_OBS,1
578,KELN,ICAO,BOWERS FLD,METAR,47.033028,-120.530694,LEGACY_OCDS,DATA AVAILABLE,FULL TIME,PRIMARY AUTO,SFC_OBS,1
579,K0F2,ICAO,BOWIE MUNI,METAR,33.601667,-97.775561,UNAVAILABLE,DATA AVAILABLE,FULL TIME,PRIMARY AUTO,SFC_OBS,1
580,KBWG,ICAO,BOWLING GREEN WARREN CO RGNL,METAR,36.964517,-86.41968100000001,LEGACY_OCDS,DATA AVAILABLE,FULL TIME,PRIMARY AUTO,SFC_OBS,1
581,KLOU,ICAO,BOWMAN FLD,METAR,38.228,-85.66372199999999,LEGACY_OCDS,DATA AVAILABLE,FULL TIME,UNKNOWN,SFC_OBS,1
582,KBWW,ICAO,BOWMAN RGNL,METAR,46.1666666,-103.3,UNAVAILABLE,DATA AVAILABLE,FULL TIME,PRIMARY AUTO,SFC_OBS,1
583,KTBX,ICAO,BOYSEN,METAR,43.4667,-108.238444,UNAVAILABLE,NEW SITE,FULL TIME,PRIMARY AUTO,SFC_OBS,1
584,LDSB,ICAO,BRAC,METAR,43.285719,16.679719,UNAVAILABLE,DATA LIMITED,PART TIME,UNKNOWN,SFC_OBS,1
585,KPOC,ICAO,BRACKETT FLD,METAR,34.091648,-117.78178,UNAVAILABLE,DATA LIMITED,PART TIME,UNKNOWN,SFC_OBS,1
586,EGRR,ICAO,BRACKNELL/BEAUFORT,METAR,51.3833333,-0.7833333,LEGACY_OCDS,DATA INCOMPLETE,PART TIME,UNKNOWN,SFC_OBS,1
587,KBFD,ICAO,BRADFORD RGNL,METAR,41.803067,-78.64012199999999,JMCLIM,DATA AVAILABLE,FULL TIME,PRIMARY AUTO,SFC_OBS,1
588,KBDL,ICAO,BRADLEY INTL,METAR,41.938889,-72.683222,JMCLIM,DATA AVAILABLE,FULL TIME,UNKNOWN,SFC_OBS,1
589,PHSF,ICAO,BRADSHAW AAF,METAR,19.760056,-155.553717,LIMCLIM,DATA LIMITED,PART TIME,UNKNOWN,SFC_OBS,1
590,KBRD,ICAO,BRAINERD LAKES RGNL,METAR,46.398308,-94.138078,JMCLIM,DATA AVAILABLE,FULL TIME,PRIMARY AUTO,SFC_OBS,1
591,KOEB,ICAO,BRANCH CO MEM,METAR,41.93345,-85.052586,LEGACY_OCDS,DATA AVAILABLE,FULL TIME,PRIMARY AUTO,SFC_OBS,1
592,LFLA,ICAO,BRANCHES,METAR,47.850193,3.497111,LEGACY_OCDS,DATA AVAILABLE,FULL TIME,PRIMARY AUTO,SFC_OBS,1
593,CYBR,ICAO,BRANDON MUNI,METAR,49.9166666,-99.95,JMCLIM,DATA AVAILABLE,FULL TIME,UNKNOWN,SFC_OBS,1
594,KOQN,ICAO,BRANDYWINE ARPT WEST CHESTER,METAR,39.99011779999999,-75.5819069,UNAVAILABLE,DATA AVAILABLE,FULL TIME,PRIMARY AUTO,SFC_OBS,1
595,KBBG,ICAO,BRANSON AIRPORT,METAR,36.5333333,-93.2,UNAVAILABLE,DATA AVAILABLE,FULL TIME,PRIMARY AUTO,SFC_OBS,1
596,KFWB,ICAO,BRANSON WEST MUNI,METAR,36.7,-93.4,UNAVAILABLE,DATA AVAILABLE,FULL TIME,PRIMARY AUTO,SFC_OBS,1
597,UIBB,ICAO,BRATSK,METAR,56.37055600000001,101.698331,JMCLIM,DATA AVAILABLE,FULL TIME,PRIMARY AUTO,SFC_OBS,1
598,EDVE,ICAO,BRAUNSCHWEIG WOLFSBURG,METAR,52.319167,10.556111,LEGACY_OCDS,DATA AVAILABLE,FULL TIME,UNKNOWN,SFC_OBS,1
599,LFAQ,ICAO,BRAY,METAR,49.971531,2.697661,UNAVAILABLE,DATA AVAILABLE,FULL TIME,PRIMARY AUTO,SFC_OBS,1
600,KLBX,ICAO,BRAZORIA CO,METAR,29.108639,-95.462081,LEGACY_OCDS,DATA AVAILABLE,FULL TIME,PRIMARY AUTO,SFC_OBS,1
601,KBBF,ICAO,BRAZOS 133,METAR,27.835,-96.010555,UNAVAILABLE,DATA AVAILABLE,FULL TIME,PRIMARY AUTO,SFC_OBS,1
602,KBQX,ICAO,BRAZOS 451,METAR,28.5,-95.7166666,UNAVAILABLE,DATA AVAILABLE,FULL TIME,PRIMARY AUTO,SFC_OBS,1
603,EDDW,ICAO,BREMEN,METAR,53.0475,8.786667,JMCLIM,DATA AVAILABLE,FULL TIME,UNKNOWN,SFC_OBS,1
604,KPWT,ICAO,BREMERTON NATIONAL,METAR,47.490244,-122.764814,JMCLIM,DATA AVAILABLE,FULL TIME,PRIMARY AUTO,SFC_OBS,1
605,K11R,ICAO,BRENHAM MUNI,METAR,30.219,-96.374278,UNAVAILABLE,DATA AVAILABLE,FULL TIME,PRIMARY AUTO,SFC_OBS,1
606,KFNB,ICAO,BRENNER FLD,METAR,40.078786,-95.591992,UNAVAILABLE,DATA AVAILABLE,FULL TIME,PRIMARY AUTO,SFC_OBS,1
607,UMBB,ICAO,BREST,METAR,52.108334,23.898056,JMCLIM,DATA LIMITED,PART TIME,UNKNOWN,SFC_OBS,1
608,PFKT,ICAO,BREVIG MISSION AIRPORT,METAR,65.33333329999999,-166.4666666,UNAVAILABLE,DATA LIMITED,FULL TIME,PRIMARY AUTO,SFC_OBS,1
609,CWOB,ICAO,BREVOORT ISLAND,METAR,63.33,-64.15,LEGACY_OCDS,DATA INCOMPLETE,FULL TIME,PRIMARY AUTO,SFC_OBS,1
610,KHDE,ICAO,BREWSTER FLD,METAR,40.452694,-99.337333,LEGACY_OCDS,DATA AVAILABLE,FULL TIME,PRIMARY AUTO,SFC_OBS,1
611,LFOJ,ICAO,BRICY,METAR,47.987778000000006,1.7605560000000002,LEGACY_OCDS,DATA AVAILABLE,FULL TIME,PRIMARY AUTO,SFC_OBS,1
612,KXBP,ICAO,BRIDGEPORT MUNI,METAR,33.175333,-97.828389,JMCLIM,DATA AVAILABLE,FULL TIME,PRIMARY AUTO,SFC_OBS,1
613,KVBW,ICAO,BRIDGEWATER,METAR,38.3666666,-78.9666666,UNAVAILABLE,DATA AVAILABLE,FULL TIME,PRIMARY AUTO,SFC_OBS,1
614,KBMC,ICAO,BRIGHAM CITY AIRPORT,METAR,41.552389,-112.062222,UNAVAILABLE,DATA AVAILABLE,FULL TIME,PRIMARY AUTO,SFC_OBS,1
615,ENBL,ICAO,BRINGELAND,METAR,61.392503000000005,5.764167,LEGACY_OCDS,DATA AVAILABLE,FULL TIME,UNKNOWN,SFC_OBS,1
616,YBBN,ICAO,BRISBANE AIRPORT,METAR,-27.416666600000003,153.0666666,JMCLIM,DATA AVAILABLE,FULL TIME,UNKNOWN,SFC_OBS,1
617,EGGD,ICAO,BRISTOL,METAR,51.382669,-2.719089,LEGACY_OCDS,DATA AVAILABLE,FULL TIME,PRIMARY AUTO,SFC_OBS,1
618,EGVN,ICAO,BRIZE NORTON,METAR,51.749964,-1.583617,LEGACY_OCDS,DATA AVAILABLE,FULL TIME,UNKNOWN,SFC_OBS,1
619,KBBW,ICAO,BROKEN BOW MUNI,METAR,41.436451,-99.642169,LEGACY_OCDS,DATA AVAILABLE,FULL TIME,PRIMARY AUTO,SFC_OBS,1
620,YBHI,ICAO,BROKEN HILL,METAR,-32.001389,141.471667,UNAVAILABLE,DATA AVAILABLE,FULL TIME,PRIMARY AUTO,SFC_OBS,1
621,ESSB,ICAO,BROMMA,METAR,59.354372,17.94165,JMCLIM,DATA AVAILABLE,FULL TIME,PRIMARY AUTO,SFC_OBS,1
622,LFLY,ICAO,BRON,METAR,45.727172,4.944275,JMCLIM,DATA AVAILABLE,FULL TIME,PRIMARY AUTO,SFC_OBS,1
623,ENBN,ICAO,BRONNOY,METAR,65.461111,12.2175,LEGACY_OCDS,DATA AVAILABLE,FULL TIME,PRIMARY AUTO,SFC_OBS,1
624,KHWV,ICAO,BROOKHAVEN,METAR,40.821944,-72.869417,UNAVAILABLE,DATA AVAILABLE,FULL TIME,PRIMARY AUTO,SFC_OBS,1
625,K1R7,ICAO,BROOKHAVEN LINCOLN CO,METAR,31.605847,-90.409317,UNAVAILABLE,NEW SITE,PART TIME,UNKNOWN,SFC_OBS,1
626,KBOK,ICAO,BROOKINGS AIRPORT,METAR,42.07,-124.29,UNAVAILABLE,DATA AVAILABLE,FULL TIME,PRIMARY AUTO,SFC_OBS,1
627,KBKX,ICAO,BROOKINGS RGNL,METAR,44.304833,-96.816944,LEGACY_OCDS,DATA AVAILABLE,FULL TIME,PRIMARY AUTO,SFC_OBS,1
628,K0V4,ICAO,BROOKNEAL CAMPBELL CO,METAR,37.141722,-79.016389,UNAVAILABLE,DATA AVAILABLE,FULL TIME,PRIMARY AUTO,SFC_OBS,1
629,KBKS,ICAO,BROOKS CO,METAR,27.206833000000003,-98.121167,LEGACY_OCDS,DATA AVAILABLE,FULL TIME,PRIMARY AUTO,SFC_OBS,1
630,KRMY,ICAO,BROOKS FLD,METAR,42.251181,-84.955453,JMCLIM,DATA AVAILABLE,FULL TIME,PRIMARY AUTO,SFC_OBS,1
631,YBRM,ICAO,BROOME INTL,METAR,-17.944722,122.231667,JMCLIM,DATA AVAILABLE,FULL TIME,PRIMARY AUTO,SFC_OBS,1
632,KSDM,ICAO,BROWN FLD MUNI,METAR,32.572306,-116.98025,LEGACY_OCDS,DATA AVAILABLE,FULL TIME,UNKNOWN,SFC_OBS,1
633,KBRO,ICAO,BROWNSVILLE SOUTH PADRE ISLAND INTL,METAR,25.906833,-97.425861,JMCLIM,DATA AVAILABLE,FULL TIME,UNKNOWN,SFC_OBS,1
634,KBWD,ICAO,BROWNWOOD RGNL,METAR,31.793622,-98.956494,UNAVAILABLE,DATA AVAILABLE,FULL TIME,PRIMARY AUTO,SFC_OBS,1
635,KMBO,ICAO,BRUCE CAMPBELL FLD,METAR,32.438663,-90.103092,UNAVAILABLE,DATA AVAILABLE,FULL TIME,PRIMARY AUTO,SFC_OBS,1
636,EGRK,ICAO,BRUCE OIL PLATFORM,METAR,59.7333333,1.6666666,UNAVAILABLE,DATA AVAILABLE,FULL TIME,PRIMARY AUTO,SFC_OBS,1
637,WBSB,ICAO,BRUNEI INTL,METAR,4.9442,114.928353,JMCLIM,DATA AVAILABLE,FULL TIME,UNKNOWN,SFC_OBS,1
638,KSUT,ICAO,BRUNSWICK CO,METAR,33.929258000000004,-78.07499200000001,UNAVAILABLE,DATA AVAILABLE,FULL TIME,PRIMARY AUTO,SFC_OBS,1
639,KBQK,ICAO,BRUNSWICK GOLDEN ISLES,METAR,31.258808,-81.466497,LEGACY_OCDS,DATA AVAILABLE,FULL TIME,PRIMARY AUTO,SFC_OBS,1
640,EBBR,ICAO,BRUSSELS NATL,METAR,50.901389,4.484444,JMCLIM,DATA AVAILABLE,FULL TIME,UNKNOWN,SFC_OBS,1
641,EBCI,ICAO,BRUSSELS SOUTH,METAR,50.459197,4.453817,JMCLIM,DATA AVAILABLE,FULL TIME,UNKNOWN,SFC_OBS,1
642,UUBP,ICAO,BRYANSK,METAR,53.21419399999999,34.176447,LEGACY_OCDS,DATA AVAILABLE,FULL TIME,UNKNOWN,SFC_OBS,1
643,PAFR,ICAO,BRYANT AHP / FT RICHARDSON ALASKA USA,METAR,61.266381,-149.653119,JMCLIM,DATA AVAILABLE,FULL TIME,PRIMARY AUTO,SFC_OBS,1
644,KBCE,ICAO,BRYCE CANYON AIRPORT,METAR,37.706444,-112.145056,LEGACY_OCDS,DATA AVAILABLE,FULL TIME,PRIMARY AUTO,SFC_OBS,1
645,KCCR,ICAO,BUCHANAN FLD,METAR,37.989667,-122.05688899999998,JMCLIM,DATA AVAILABLE,FULL TIME,UNKNOWN,SFC_OBS,1
646,ETSB,ICAO,BUCHEL,METAR,50.173833,7.063333,JMCLIM,DATA AVAILABLE,FULL TIME,PRIMARY AUTO,SFC_OBS,1
647,PKWA,ICAO,BUCHOLZ AAF,METAR,8.720122,167.731661,JMCLIM,DATA AVAILABLE,FULL TIME,PRIMARY AUTO,SFC_OBS,1
648,ETHB,ICAO,BUCKEBURG,METAR,52.2785,9.082167,LEGACY_OCDS,DATA AVAILABLE,FULL TIME,UNKNOWN,SFC_OBS,1
649,KBXK,ICAO,BUCKEYE MUNI,METAR,33.420417,-112.686181,UNAVAILABLE,DATA AVAILABLE,FULL TIME,PRIMARY AUTO,SFC_OBS,1
650,PABL,ICAO,BUCKLAND,METAR,65.981567,-161.149069,LEGACY_OCDS,DATA AVAILABLE,FULL TIME,PRIMARY AUTO,SFC_OBS,1
651,KBKF,ICAO,BUCKLEY AFB,METAR,39.701668,-104.75166,JMCLIM,DATA AVAILABLE,FULL TIME,PRIMARY AUGMENTED,SFC_OBS,1
652,K2WX,ICAO,BUFFALO,METAR,45.6,-103.55,UNAVAILABLE,DATA INCOMPLETE,FULL TIME,PRIMARY AUTO,SFC_OBS,1
653,KCFE,ICAO,BUFFALO MUNICIPAL AIRPORT,METAR,45.16,-93.84,LEGACY_OCDS,DATA INCOMPLETE,FULL TIME,UNKNOWN,SFC_OBS,1
654,CYVT,ICAO,BUFFALO NARROWS,METAR,55.84194399999999,-108.4175,LEGACY_OCDS,DATA LIMITED,PART TIME,UNKNOWN,SFC_OBS,1
655,KBUF,ICAO,BUFFALO NIAGARA INTL,METAR,42.940525,-78.732167,JMCLIM,DATA AVAILABLE,FULL TIME,UNKNOWN,SFC_OBS,1
656,FVCZ,ICAO,BUFFALO RANGE,METAR,-21.008083,31.57855,LEGACY_OCDS,DATA INCOMPLETE,PART TIME,UNKNOWN,SFC_OBS,1
657,HBBA,ICAO,BUJUMBURA INTL,METAR,-3.3240190000000003,29.318519,MINCLIM,DATA LIMITED,PART TIME,UNKNOWN,SFC_OBS,1
658,UTSB,ICAO,BUKHARA,METAR,39.775,64.483333,JMCLIM,DATA AVAILABLE,FULL TIME,UNKNOWN,SFC_OBS,1
659,HTBU,ICAO,BUKOBA,METAR,-1.3333333,31.816666700000003,LEGACY_OCDS,DATA LIMITED,PART TIME,UNKNOWN,SFC_OBS,1
660,YBUD,ICAO,BUNDABERG,METAR,-24.903889000000003,152.318611,UNAVAILABLE,DATA AVAILABLE,FULL TIME,PRIMARY AUTO,SFC_OBS,1
661,LSZC,ICAO,BUOCHS AIRPORT / STANS,METAR,46.9666666,8.4,UNAVAILABLE,DATA AVAILABLE,FULL TIME,PRIMARY AUTO,SFC_OBS,1
662,LBBG,ICAO,BURGAS,METAR,42.569583,27.515236,JMCLIM,DATA AVAILABLE,FULL TIME,UNKNOWN,SFC_OBS,1
663,LEBG,ICAO,BURGOS,METAR,42.357628000000005,-3.620764,LEGACY_OCDS,DATA AVAILABLE,FULL TIME,PRIMARY AUTO,SFC_OBS,1
664,VTUO,ICAO,BURI RAM,METAR,15.229539,103.253231,UNAVAILABLE,DATA LIMITED,FULL TIME,UNKNOWN,SFC_OBS,1
665,KBKL,ICAO,BURKE LAKEFRONT,METAR,41.5175,-81.68333299999999,LEGACY_OCDS,DATA AVAILABLE,FULL TIME,UNKNOWN,SFC_OBS,1
666,KBYI,ICAO,BURLEY MUNI,METAR,42.542603,-113.771544,LEGACY_OCDS,DATA AVAILABLE,FULL TIME,PRIMARY AUTO,SFC_OBS,1
667,KBUY,ICAO,BURLINGTON ALAMANCE RGNL,METAR,36.048544,-79.474889,LEGACY_OCDS,DATA AVAILABLE,FULL TIME,PRIMARY AUTO,SFC_OBS,1
668,KBTV,ICAO,BURLINGTON INTL,METAR,44.471861,-73.153278,JMCLIM,DATA AVAILABLE,FULL TIME,UNKNOWN,SFC_OBS,1
669,KBUU,ICAO,BURLINGTON MUNI,METAR,42.690722,-88.304639,LEGACY_OCDS,DATA AVAILABLE,FULL TIME,PRIMARY AUTO,SFC_OBS,1
670,KBMQ,ICAO,BURNET MUNI KATE CRADDOCK FLD,METAR,30.738928,-98.238611,LEGACY_OCDS,DATA AVAILABLE,FULL TIME,PRIMARY AUTO,SFC_OBS,1
671,KRZN,ICAO,BURNETT CO,METAR,45.822728000000005,-92.3725,LEGACY_OCDS,DATA AVAILABLE,FULL TIME,PRIMARY AUTO,SFC_OBS,1
672,KBNO,ICAO,BURNS MUNI,METAR,43.591908,-118.955436,JMCLIM,DATA AVAILABLE,FULL TIME,PRIMARY AUTO,SFC_OBS,1
673,CYDB,ICAO,BURWASH,METAR,61.371111,-139.040556,LEGACY_OCDS,DATA AVAILABLE,FULL TIME,PRIMARY AUTO,SFC_OBS,1
674,CVBR,ICAO,BURWASH RCS,METAR,61.36666700000001,-139.033333,UNAVAILABLE,DATA INCOMPLETE,FULL TIME,UNKNOWN,SFC_OBS,1
675,OIBB,ICAO,BUSHEHR,METAR,28.944811,50.834637,JMCLIM,DATA AVAILABLE,FULL TIME,UNKNOWN,SFC_OBS,1
676,KBTP,ICAO,BUTLER CO K W SCHOLTER FLD,METAR,40.776925,-79.949725,JMCLIM,DATA AVAILABLE,FULL TIME,PRIMARY AUTO,SFC_OBS,1
677,KHAO,ICAO,BUTLER CO RGNL,METAR,39.36375,-84.521956,LEGACY_OCDS,DATA AVAILABLE,FULL TIME,PRIMARY AUTO,SFC_OBS,1
678,K6A1,ICAO,BUTLER MUNI,METAR,32.567644,-84.250747,UNAVAILABLE,DATA AVAILABLE,FULL TIME,PRIMARY AUTO,SFC_OBS,1
679,WMKB,ICAO,BUTTERWORTH,METAR,5.465917,100.391167,UNAVAILABLE,DATA AVAILABLE,FULL TIME,UNKNOWN,SFC_OBS,1
680,KFCS,ICAO,BUTTS AAF / FT CARSON COLORADO USA,METAR,38.678394,-104.756581,JMCLIM,DATA AVAILABLE,FULL TIME,PRIMARY AUTO,SFC_OBS,1
681,KC83,ICAO,BYRON,METAR,37.8284,-121.625833,UNAVAILABLE,DATA AVAILABLE,FULL TIME,PRIMARY AUTO,SFC_OBS,1
682,KCRS,ICAO,C DAVID CAMPBELL FLD CORSICANA MUNI,METAR,32.028069,-96.400578,LEGACY_OCDS,DATA AVAILABLE,FULL TIME,PRIMARY AUTO,SFC_OBS,1
683,K3F3,ICAO,C E RUSTY WILLIAMS,METAR,32.07346,-93.765518,UNAVAILABLE,DATA AVAILABLE,FULL TIME,PRIMARY AUTO,SFC_OBS,1
684,MMVA,ICAO,C P A CARLOS ROVIROSA INTL,METAR,17.9833333,-92.8166666,LEGACY_OCDS,DATA LIMITED,PART TIME,UNKNOWN,SFC_OBS,1
685,FNCA,ICAO,CABINDA,METAR,-5.596992,12.188353,LEGACY_OCDS,DATA LIMITED,PART TIME,UNKNOWN,SFC_OBS,1
686,KCCB,ICAO,CABLE,METAR,34.111542,-117.687589,UNAVAILABLE,DATA AVAILABLE,FULL TIME,PRIMARY AUTO,SFC_OBS,1
687,SBCB,ICAO,CABO FRIO,METAR,-22.921681,-42.074269,UNAVAILABLE,DATA LIMITED,PART TIME,UNKNOWN,SFC_OBS,1
688,MMSL,ICAO,CABO SAN LUCAS,METAR,22.94845,-109.938733,UNAVAILABLE,DATA LIMITED,PART TIME,UNKNOWN,SFC_OBS,1
689,SBCC,ICAO,CACHIMBO,METAR,-9.333936,-54.965422,UNAVAILABLE,DATA LIMITED,PART TIME,UNKNOWN,SFC_OBS,1
690,SPST,ICAO,CADETE GUILLERMO DEL CASTILLO PAREDES,METAR,-6.508742,-76.37324699999999,LEGACY_OCDS,DATA LIMITED,PART TIME,UNKNOWN,SFC_OBS,1
691,DBBB,ICAO,CADJEHOUN,METAR,6.357228,2.384353,JMCLIM,DATA AVAILABLE,FULL TIME,UNKNOWN,SFC_OBS,1
692,EGCK,ICAO,CAERNARFON,METAR,53.104167,-4.340278,UNAVAILABLE,DATA AVAILABLE,FULL TIME,PRIMARY AUTO,SFC_OBS,1
693,KOZR,ICAO,CAIRNS AAF / FT RUCKER ALABAMA USA,METAR,31.275675,-85.713383,JMCLIM,DATA AVAILABLE,FULL TIME,PRIMARY AUTO,SFC_OBS,1
694,YBCS,ICAO,CAIRNS INTL,METAR,-16.885832999999998,145.755278,JMCLIM,DATA AVAILABLE,FULL TIME,PRIMARY AUTO,SFC_OBS,1
695,HECA,ICAO,CAIRO INTL,METAR,30.121944,31.405556,JMCLIM,DATA AVAILABLE,FULL TIME,UNKNOWN,SFC_OBS,1
696,KCIR,ICAO,CAIRO RGNL,METAR,37.064472,-89.219612,LEGACY_OCDS,DATA AVAILABLE,FULL TIME,PRIMARY AUTO,SFC_OBS,1
697,DNCA,ICAO,CALABAR,METAR,4.976019,8.347197,UNAVAILABLE,DATA LIMITED,PART TIME,UNKNOWN,SFC_OBS,1
698,KCPU,ICAO,CALAVERAS CO MAURY RASMUSSEN FLD,METAR,38.146118,-120.648172,UNAVAILABLE,DATA AVAILABLE,FULL TIME,PRIMARY AUTO,SFC_OBS,1
699,KEUL,ICAO,CALDWELL INDUSTRIAL,METAR,43.6418,-116.6357,LEGACY_OCDS,DATA AVAILABLE,FULL TIME,PRIMARY AUTO,SFC_OBS,1
700,KRWV,ICAO,CALDWELL MUNI,METAR,30.515475,-96.704086,LEGACY_OCDS,DATA AVAILABLE,FULL TIME,PRIMARY AUTO,SFC_OBS,1
701,KCDA,ICAO,CALEDONIA COUNTY AIRPORT,METAR,44.566666600000005,-72.0166666,UNAVAILABLE,DATA AVAILABLE,FULL TIME,PRIMARY AUTO,SFC_OBS,1
702,CYYC,ICAO,CALGARY INTL,METAR,51.113888,-114.020278,JMCLIM,DATA AVAILABLE,FULL TIME,UNKNOWN,SFC_OBS,1
703,KPKV,ICAO,CALHOUN CO,METAR,28.654028000000004,-96.681317,LEGACY_OCDS,DATA AVAILABLE,FULL TIME,PRIMARY AUTO,SFC_OBS,1
704,VOCL,ICAO,CALICUT,METAR,11.136839,75.9553,UNAVAILABLE,DATA AVAILABLE,FULL TIME,UNKNOWN,SFC_OBS,1
705,KPIM,ICAO,CALLAWAY GARDENS HARRIS CO,METAR,32.840694,-84.88244399999999,UNAVAILABLE,DATA AVAILABLE,FULL TIME,PRIMARY AUTO,SFC_OBS,1
706,CWRF,ICAO,CAM FOUR,METAR,68.4333333,-89.716667,UNAVAILABLE,DATA INCOMPLETE,FULL TIME,PRIMARY AUTO,SFC_OBS,1
707,VVCR,ICAO,CAM RANH,METAR,11.998153,109.219372,UNAVAILABLE,DATA AVAILABLE,FULL TIME,UNKNOWN,SFC_OBS,1
708,KCMA,ICAO,CAMARILLO,METAR,34.212519,-119.094353,LEGACY_OCDS,DATA AVAILABLE,FULL TIME,UNKNOWN,SFC_OBS,1
709,EGSC,ICAO,CAMBRIDGE,METAR,52.205,0.175,LEGACY_OCDS,DATA LIMITED,PART TIME,UNKNOWN,SFC_OBS,1
710,CYCB,ICAO,CAMBRIDGE BAY,METAR,69.10805500000001,-105.138333,JMCLIM,DATA AVAILABLE,FULL TIME,UNKNOWN,SFC_OBS,1
711,KCGE,ICAO,CAMBRIDGE DORCHESTER,METAR,38.539325,-76.0304,UNAVAILABLE,DATA AVAILABLE,FULL TIME,PRIMARY AUTO,SFC_OBS,1
712,KCDI,ICAO,CAMBRIDGE MUNI,METAR,39.975039,-81.577586,UNAVAILABLE,DATA AVAILABLE,FULL TIME,PRIMARY AUTO,SFC_OBS,1
713,KCBG,ICAO,CAMBRIDGE MUNI,METAR,45.557494,-93.264183,JMCLIM,DATA AVAILABLE,FULL TIME,PRIMARY AUTO,SFC_OBS,1
714,KCDN,ICAO,CAMDEN/WOODWARD FLD,METAR,34.283333299999995,-80.56666659999999,UNAVAILABLE,DATA AVAILABLE,FULL TIME,PRIMARY AUTO,SFC_OBS,1
715,KOZS,ICAO,CAMDENTON MEMORIAL-LAKE REGIONAL,METAR,37.973972,-92.691193,UNAVAILABLE,DATA AVAILABLE,FULL TIME,PRIMARY AUTO,SFC_OBS,1
716,LIMN,ICAO,CAMERI,METAR,45.529592,8.669225,LEGACY_OCDS,DATA LIMITED,PART TIME,UNKNOWN,SFC_OBS,1
717,KCVW,ICAO,CAMERON,METAR,29.784,-93.3,UNAVAILABLE,DATA AVAILABLE,FULL TIME,PRIMARY AUTO,SFC_OBS,1
718,KEZZ,ICAO,CAMERON MEM,METAR,39.727561,-94.276375,UNAVAILABLE,DATA AVAILABLE,FULL TIME,PRIMARY AUTO,SFC_OBS,1
719,KT35,ICAO,CAMERON MUNI AIRPARK,METAR,30.879356,-96.971097,UNAVAILABLE,DATA AVAILABLE,FULL TIME,PRIMARY AUTO,SFC_OBS,1
720,KCXU,ICAO,CAMILLA MITCHELL CO,METAR,31.212917,-84.236806,UNAVAILABLE,DATA AVAILABLE,FULL TIME,PRIMARY AUTO,SFC_OBS,1
721,SKCC,ICAO,CAMILO DAZA,METAR,7.927567,-72.511547,LEGACY_OCDS,DATA AVAILABLE,FULL TIME,UNKNOWN,SFC_OBS,1
722,SLCA,ICAO,CAMIRI,METAR,-20.05,-63.5666667,LEGACY_OCDS,DATA LIMITED,PART TIME,UNKNOWN,SFC_OBS,1
723,KRSP,ICAO,CAMP DAVID,METAR,39.65,-77.4666666,LIMCLIM,DATA LIMITED,PART TIME,PRIMARY AUTO,SFC_OBS,1
724,KGUR,ICAO,CAMP GUERNSEY,METAR,42.259611,-104.72826,MINCLIM,DATA LIMITED,PART TIME,PRIMARY AUTO,SFC_OBS,1
725,KNFG,ICAO,CAMP PENDLETON MCAS,METAR,33.30125,-117.355147,JMCLIM,DATA AVAILABLE,FULL TIME,PRIMARY AUTO,SFC_OBS,1
726,KHOP,ICAO,CAMPBELL AAF / FT CAMPBELL KENTUCKY USA,METAR,36.668567,-87.496183,JMCLIM,DATA AVAILABLE,FULL TIME,PRIMARY AUTO,SFC_OBS,1
727,KJAU,ICAO,CAMPBELL CO,METAR,36.334575,-84.16234399999999,UNAVAILABLE,DATA AVAILABLE,FULL TIME,PRIMARY AUTO,SFC_OBS,1
728,CYBL,ICAO,CAMPBELL RIVER,METAR,49.950832,-125.270833,LEGACY_OCDS,DATA LIMITED,PART TIME,UNKNOWN,SFC_OBS,1
729,KAAS,ICAO,CAMPBELLVILLE / TAYLOR CO,METAR,37.358278000000006,-85.30941700000001,UNAVAILABLE,DATA AVAILABLE,FULL TIME,PRIMARY AUTO,SFC_OBS,1
730,EGEC,ICAO,CAMPBELTOWN,METAR,55.437222,-5.686389,UNAVAILABLE,DATA LIMITED,PART TIME,UNKNOWN,SFC_OBS,1
731,LRCT,ICAO,CAMPIA TURZII,METAR,46.502281,23.885914,LIMCLIM,DATA LIMITED,PART TIME,UNKNOWN,SFC_OBS,1
732,KCZZ,ICAO,CAMPO,METAR,32.63,-116.47,JMCLIM,DATA INCOMPLETE,FULL TIME,PRIMARY AUTO,SFC_OBS,1
733,SBAF,ICAO,CAMPO DELIO JARDIM DE MATTOS,METAR,-22.875083,-43.384708,LEGACY_OCDS,DATA LIMITED,PART TIME,UNKNOWN,SFC_OBS,1
734,LFKJ,ICAO,CAMPO DELL ORO,METAR,41.923637,8.802916999999999,LEGACY_OCDS,DATA AVAILABLE,FULL TIME,PRIMARY AUTO,SFC_OBS,1
735,SBYS,ICAO,CAMPO FONTENELLE,METAR,-21.984561,-47.334764,LEGACY_OCDS,DATA LIMITED,PART TIME,UNKNOWN,SFC_OBS,1
736,SBCG,ICAO,CAMPO GRANDE,METAR,-20.468667,-54.6725,JMCLIM,DATA AVAILABLE,FULL TIME,UNKNOWN,SFC_OBS,1
737,LIBS,ICAO,CAMPOBASSO,METAR,41.5666667,14.65,LEGACY_OCDS,DATA AVAILABLE,FULL TIME,UNKNOWN,SFC_OBS,1
738,SBFS,ICAO,CAMPOS D GOITACAZES,METAR,-22.016666600000004,-41.066666600000005,UNAVAILABLE,DATA LIMITED,PART TIME,UNKNOWN,SFC_OBS,1
739,VVCT,ICAO,CAN THO,METAR,10.0833333,105.7166666,LEGACY_OCDS,DATA AVAILABLE,FULL TIME,UNKNOWN,SFC_OBS,1
740,LTBH,ICAO,CANAKKALE,METAR,40.137722,26.426777,LEGACY_OCDS,DATA LIMITED,FULL TIME,UNKNOWN,SFC_OBS,1
741,SCJO,ICAO,CANAL BAJO CARLOS HOTT SIEBERT,METAR,-40.611208000000005,-73.061042,UNAVAILABLE,DATA LIMITED,PART TIME,UNKNOWN,SFC_OBS,1
742,YSCB,ICAO,CANBERRA,METAR,-35.306944,149.195,JMCLIM,DATA AVAILABLE,FULL TIME,PRIMARY AUTO,SFC_OBS,1
743,MMUN,ICAO,CANCUN INTL,METAR,21.036528,-86.877083,JMCLIM,DATA AVAILABLE,FULL TIME,UNKNOWN,SFC_OBS,1
744,K9D7,ICAO,CANDO MUNI,METAR,48.479972,-99.235919,UNAVAILABLE,DATA AVAILABLE,FULL TIME,PRIMARY AUTO,SFC_OBS,1
745,TDCF,ICAO,CANEFIELD,METAR,15.336719,-61.392211,LEGACY_OCDS,DATA LIMITED,PART TIME,UNKNOWN,SFC_OBS,1
746,KCVS,ICAO,CANNON AFB,METAR,34.39322,-103.30954,JMCLIM,DATA AVAILABLE,FULL TIME,PRIMARY AUTO,SFC_OBS,1
747,SBCO,ICAO,CANOAS,METAR,-29.945944,-51.144367,LEGACY_OCDS,DATA LIMITED,PART TIME,UNKNOWN,SFC_OBS,1
748,KCXW,ICAO,CANTRELL FLD ARPT,METAR,35.0198889,-92.5551111,UNAVAILABLE,DATA AVAILABLE,FULL TIME,PRIMARY AUTO,SFC_OBS,1
749,KCNY,ICAO,CANYONLANDS FLD,METAR,38.754956,-109.754844,UNAVAILABLE,DATA AVAILABLE,FULL TIME,PRIMARY AUTO,SFC_OBS,1
750,SPCL,ICAO,CAP FAP DAVID ABENZUR RENGIFO INTL,METAR,-8.377939,-74.574297,LIMCLIM,DATA AVAILABLE,FULL TIME,UNKNOWN,SFC_OBS,1
751,MTCH,ICAO,CAP HAITIEN INTL,METAR,19.732989,-72.194739,UNAVAILABLE,DATA LIMITED,PART TIME,UNKNOWN,SFC_OBS,1
752,MPCH,ICAO,CAP MANUEL NINO INTL,METAR,9.458636,-82.516806,UNAVAILABLE,NEW SITE,PART TIME,UNKNOWN,SFC_OBS,1
753,GOGS,ICAO,CAP SKIRING,METAR,12.4102,-16.746125,LEGACY_OCDS,DATA LIMITED,PART TIME,UNKNOWN,SFC_OBS,1
754,LIEB,ICAO,CAPE BELLAVISTA,METAR,39.9333333,9.7166667,LEGACY_OCDS,DATA AVAILABLE,FULL TIME,UNKNOWN,SFC_OBS,1
755,LIEH,ICAO,CAPE CACCIA,METAR,40.5666667,8.1666667,LEGACY_OCDS,DATA AVAILABLE,FULL TIME,UNKNOWN,SFC_OBS,1
756,KXMR,ICAO,CAPE CANAVERAL AFS SKID STRIP,METAR,28.467586,-80.566614,JMCLIM,DATA AVAILABLE,FULL TIME,PRIMARY AUTO,SFC_OBS,1
757,LIEC,ICAO,CAPE CARBONARA,METAR,39.1,9.516666699999998,LEGACY_OCDS,DATA AVAILABLE,FULL TIME,UNKNOWN,SFC_OBS,1
758,CYTE,ICAO,CAPE DORSET A,METAR,64.2333333,-76.5333333,LEGACY_OCDS,DATA AVAILABLE,FULL TIME,PRIMARY AUTO,SFC_OBS,1
759,CWFD,ICAO,CAPE DYER,METAR,66.65,-61.3833333,JMCLIM,DATA INCOMPLETE,FULL TIME,PRIMARY AUTO,SFC_OBS,1
760,LIEF,ICAO,CAPE FRASCA,METAR,39.75,8.4666667,LEGACY_OCDS,DATA LIMITED,PART TIME,UNKNOWN,SFC_OBS,1
761,KCGI,ICAO,CAPE GIRARDEAU RGNL,METAR,37.225317,-89.570753,LEGACY_OCDS,DATA AVAILABLE,FULL TIME,PRIMARY AUTO,SFC_OBS,1
762,PALU,ICAO,CAPE LISBURNE LRRS,METAR,68.87513299999999,-166.110022,JMCLIM,DATA LIMITED,FULL TIME,PRIMARY AUTO,SFC_OBS,1
763,KWWD,ICAO,CAPE MAY CO,METAR,39.008507,-74.908275,JMCLIM,DATA AVAILABLE,FULL TIME,PRIMARY AUTO,SFC_OBS,1
764,LIMU,ICAO,CAPE MELE,METAR,43.95,8.1666667,JMCLIM,DATA AVAILABLE,FULL TIME,UNKNOWN,SFC_OBS,1
765,PAEH,ICAO,CAPE NEWENHAM LRRS,METAR,58.646428,-162.062778,JMCLIM,DATA AVAILABLE,FULL TIME,PRIMARY AUTO,SFC_OBS,1
766,LIQK,ICAO,CAPE PALINURO,METAR,40.0166667,15.2833333,LEGACY_OCDS,DATA AVAILABLE,FULL TIME,UNKNOWN,SFC_OBS,1
767,CZCP,ICAO,CAPE PARRY A,METAR,70.1666666,-124.7166666,LEGACY_OCDS,DATA INCOMPLETE,FULL TIME,PRIMARY AUTO,SFC_OBS,1
768,CWPX,ICAO,CAPE PEEL WEST,METAR,69.03,-107.82,UNAVAILABLE,DATA INCOMPLETE,FULL TIME,PRIMARY AUTO,SFC_OBS,1
769,PACZ,ICAO,CAPE ROMANZOF LRRS,METAR,61.780297,-166.038747,JMCLIM,DATA AVAILABLE,FULL TIME,PRIMARY AUTO,SFC_OBS,1
770,LIEL,ICAO,CAPE S. LORENZO,METAR,39.5,9.616666699999998,UNAVAILABLE,DATA LIMITED,PART TIME,UNKNOWN,SFC_OBS,1
771,FACT,ICAO,CAPE TOWN INTL,METAR,-33.964806,18.601667000000003,JMCLIM,DATA LIMITED,FULL TIME,UNKNOWN,SFC_OBS,1
772,KFFT,ICAO,CAPITAL CITY,METAR,38.182489,-84.904701,LEGACY_OCDS,DATA AVAILABLE,FULL TIME,PRIMARY AUTO,SFC_OBS,1
773,KCXY,ICAO,CAPITAL CITY,METAR,40.217139,-76.851472,LEGACY_OCDS,DATA AVAILABLE,FULL TIME,UNKNOWN,SFC_OBS,1
774,KLAN,ICAO,CAPITAL CITY,METAR,42.7787,-84.587357,JMCLIM,DATA AVAILABLE,FULL TIME,UNKNOWN,SFC_OBS,1
775,SPRU,ICAO,CAPITAN CARLOS MARTINEZ DE PINILLOS,METAR,-8.081411,-79.108761,JMCLIM,DATA AVAILABLE,FULL TIME,UNKNOWN,SFC_OBS,1
776,SULS,ICAO,CAPITAN CORBETA C A CURBELO INTL,METAR,-34.855139,-55.094278,JMCLIM,DATA AVAILABLE,FULL TIME,UNKNOWN,SFC_OBS,1
777,SPYL,ICAO,CAPITAN MONTES,METAR,-4.576639,-81.254139,JMCLIM,DATA LIMITED,PART TIME,UNKNOWN,SFC_OBS,1
778,SLPO,ICAO,CAPITAN NICOLAS ROJAS,METAR,-19.543069,-65.723706,LEGACY_OCDS,DATA LIMITED,PART TIME,UNKNOWN,SFC_OBS,1
779,SLTJ,ICAO,CAPITAN ORIEL LEA PLAZA,METAR,-21.555736,-64.701325,LEGACY_OCDS,DATA LIMITED,PART TIME,UNKNOWN,SFC_OBS,1
780,LIRN,ICAO,CAPODICHINO,METAR,40.886033000000005,14.290781,JMCLIM,DATA AVAILABLE,FULL TIME,UNKNOWN,SFC_OBS,1
781,LIQC,ICAO,CAPRI ISLAND,METAR,40.55,14.25,LEGACY_OCDS,DATA AVAILABLE,FULL TIME,UNKNOWN,SFC_OBS,1
782,SPHI,ICAO,CAPT JOSE A  QUINONES GONZALES INTL,METAR,-6.787475,-79.828097,JMCLIM,DATA LIMITED,FULL TIME,UNKNOWN,SFC_OBS,1
783,KEQA,ICAO,CAPTAIN JACK THOMAS EL DORADO,METAR,37.774108,-96.817628,UNAVAILABLE,DATA AVAILABLE,FULL TIME,PRIMARY AUTO,SFC_OBS,1
784,SBCJ,ICAO,CARAJAS,METAR,-6.117806,-50.003472,UNAVAILABLE,DATA LIMITED,PART TIME,UNKNOWN,SFC_OBS,1
785,CWZE,ICAO,CARBERRY CS,METAR,49.9,-99.35,UNAVAILABLE,DATA INCOMPLETE,FULL TIME,UNKNOWN,SFC_OBS,1
786,KPUC,ICAO,CARBON CO,METAR,39.613917,-110.751419,JMCLIM,DATA AVAILABLE,FULL TIME,PRIMARY AUTO,SFC_OBS,1
787,LTAY,ICAO,CARDAK,METAR,37.785567,29.701297,UNAVAILABLE,DATA AVAILABLE,FULL TIME,UNKNOWN,SFC_OBS,1
788,EGFF,ICAO,CARDIFF,METAR,51.396667,-3.3433330000000003,JMCLIM,DATA AVAILABLE,FULL TIME,PRIMARY AUTO,SFC_OBS,1
789,EGRG,ICAO,CARDIFF WEATHER CENTER,METAR,51.4833333,-3.1833333,UNAVAILABLE,DATA AVAILABLE,FULL TIME,PRIMARY AUTO,SFC_OBS,1
790,KCAR,ICAO,CARIBOU MUNI,METAR,46.8715,-68.01791700000001,LEGACY_OCDS,DATA AVAILABLE,FULL TIME,PRIMARY AUTO,SFC_OBS,1
791,LFMO,ICAO,CARITAT,METAR,44.140481,4.866717,LEGACY_OCDS,DATA AVAILABLE,FULL TIME,PRIMARY AUTO,SFC_OBS,1
792,KPCW,ICAO,CARL R KELLER FLD,METAR,41.516278,-82.86869399999999,UNAVAILABLE,DATA AVAILABLE,FULL TIME,PRIMARY AUTO,SFC_OBS,1
793,SCCI,ICAO,CARLOS IBANEZ DEL CAMPO INTL,METAR,-53.002642,-70.854586,JMCLIM,DATA AVAILABLE,FULL TIME,UNKNOWN,SFC_OBS,1
794,SGPI,ICAO,CARLOS MIGUEL GIMENEZ,METAR,-26.881467,-58.318036,UNAVAILABLE,DATA INCOMPLETE,PART TIME,UNKNOWN,SFC_OBS,1
795,SBPR,ICAO,CARLOS PRATES,METAR,-19.90925,-43.99075,UNAVAILABLE,DATA LIMITED,PART TIME,UNKNOWN,SFC_OBS,1
796,KCRQ,ICAO,CARLSBAD MCCLELLAN-PALOMAR AIRPORT,METAR,33.12825,-117.280083,UNAVAILABLE,DATA AVAILABLE,FULL TIME,UNKNOWN,SFC_OBS,1
797,KCUL,ICAO,CARMI MUNI,METAR,38.089481,-88.123062,LEGACY_OCDS,DATA AVAILABLE,FULL TIME,PRIMARY AUTO,SFC_OBS,1
798,YCAR,ICAO,CARNARVON,METAR,-24.880556,113.672222,UNAVAILABLE,DATA AVAILABLE,FULL TIME,PRIMARY AUTO,SFC_OBS,1
799,SBCI,ICAO,CAROLINA,METAR,-7.320444,-47.458667,LEGACY_OCDS,DATA LIMITED,PART TIME,UNKNOWN,SFC_OBS,1
800,LFRK,ICAO,CARPIQUET,METAR,49.173333,-0.45,LEGACY_OCDS,DATA AVAILABLE,FULL TIME,PRIMARY AUTO,SFC_OBS,1
801,SUMU,ICAO,CARRASCO INTL,METAR,-34.838417,-56.030806000000005,JMCLIM,DATA AVAILABLE,FULL TIME,UNKNOWN,SFC_OBS,1
802,SCIE,ICAO,CARRIEL SUR INTL,METAR,-36.77265,-73.063106,JMCLIM,DATA AVAILABLE,FULL TIME,UNKNOWN,SFC_OBS,1
803,K46D,ICAO,CARRINGTON MUNI,METAR,47.451111100000006,-99.1513333,UNAVAILABLE,DATA AVAILABLE,FULL TIME,PRIMARY AUTO,SFC_OBS,1
804,KHZD,ICAO,CARROLL CO,METAR,36.089308,-88.463297,UNAVAILABLE,DATA AVAILABLE,FULL TIME,PRIMARY AUTO,SFC_OBS,1
805,KDMW,ICAO,CARROLL CO RGNL JACK B POAGE FLD,METAR,39.608278000000006,-77.007667,UNAVAILABLE,DATA AVAILABLE,FULL TIME,PRIMARY AUTO,SFC_OBS,1
806,LTFH,ICAO,CARSAMBA,METAR,41.254481,36.567106,LEGACY_OCDS,DATA AVAILABLE,FULL TIME,UNKNOWN,SFC_OBS,1
807,KCXP,ICAO,CARSON CITY AIRPORT,METAR,39.192222,-119.734444,UNAVAILABLE,DATA AVAILABLE,FULL TIME,PRIMARY AUTO,SFC_OBS,1
808,KVPC,ICAO,CARTERSVILLE,METAR,34.123139,-84.848694,LEGACY_OCDS,DATA AVAILABLE,FULL TIME,PRIMARY AUTO,SFC_OBS,1
809,DTTA,ICAO,CARTHAGE,METAR,36.851033,10.227217,JMCLIM,DATA AVAILABLE,FULL TIME,UNKNOWN,SFC_OBS,1
810,CYCA,ICAO,CARTWRIGHT (MAN),METAR,53.6833333,-57.0333333,UNAVAILABLE,DATA AVAILABLE,FULL TIME,PRIMARY AUTO,SFC_OBS,1
811,MDLR,ICAO,CASA DE CAMPO INTL,METAR,18.450711,-68.911833,UNAVAILABLE,DATA LIMITED,PART TIME,UNKNOWN,SFC_OBS,1
812,KCGZ,ICAO,CASA GRANDE MUNI,METAR,32.954889,-111.766833,JMCLIM,DATA AVAILABLE,FULL TIME,PRIMARY AUTO,SFC_OBS,1
813,LIBR,ICAO,CASALE,METAR,40.657633,17.947032999999998,JMCLIM,DATA AVAILABLE,FULL TIME,UNKNOWN,SFC_OBS,1
814,LPCS,ICAO,CASCAIS,METAR,38.725025,-9.355231,UNAVAILABLE,DATA AVAILABLE,FULL TIME,UNKNOWN,SFC_OBS,1
815,SBCA,ICAO,CASCAVEL,METAR,-25.000339,-53.500764,UNAVAILABLE,DATA LIMITED,PART TIME,UNKNOWN,SFC_OBS,1
816,EIME,ICAO,CASEMENT,METAR,53.301667,-6.451333,LEGACY_OCDS,DATA AVAILABLE,FULL TIME,UNKNOWN,SFC_OBS,1
817,YCAS,ICAO,CASINO,METAR,-28.882778,153.066944,UNAVAILABLE,DATA INCOMPLETE,FULL TIME,PRIMARY AUTO,SFC_OBS,1
818,LKCV,ICAO,CASLAV,METAR,49.939653,15.381808,LEGACY_OCDS,DATA AVAILABLE,FULL TIME,UNKNOWN,SFC_OBS,1
819,EBCT,ICAO,CASTEAU/HELI (MET),METAR,50.5,3.98,UNAVAILABLE,DATA AVAILABLE,FULL TIME,PRIMARY AUTO,SFC_OBS,1
820,LECH,ICAO,CASTELLON AIRPORT,METAR,40.2166666,0.0666666,UNAVAILABLE,DATA AVAILABLE,FULL TIME,PRIMARY AUTO,SFC_OBS,1
821,KMER,ICAO,CASTLE,METAR,37.380481,-120.568189,JMCLIM,DATA AVAILABLE,FULL TIME,PRIMARY AUTO,SFC_OBS,1
822,CYCG,ICAO,CASTLEGAR,METAR,49.296389000000005,-117.6325,LEGACY_OCDS,DATA LIMITED,PART TIME,UNKNOWN,SFC_OBS,1
823,KCVB,ICAO,CASTROVILLE MUNI,METAR,29.35,-98.85,UNAVAILABLE,DATA AVAILABLE,FULL TIME,PRIMARY AUTO,SFC_OBS,1
824,VVCI,ICAO,CAT BI INTL ARPT/HAI PHONG,METAR,20.8194007,106.724998,UNAVAILABLE,DATA AVAILABLE,FULL TIME,UNKNOWN,SFC_OBS,1
825,MHCA,ICAO,CATACAMAS,METAR,14.9,-85.9333333,LIMCLIM,DATA LIMITED,PART TIME,UNKNOWN,SFC_OBS,1
826,KAVX,ICAO,CATALINA,METAR,33.404945,-118.41586,LEGACY_OCDS,DATA AVAILABLE,FULL TIME,PRIMARY AUTO,SFC_OBS,1
827,LRTC,ICAO,CATALOI,METAR,45.062486,28.714311,JMCLIM,DATA AVAILABLE,FULL TIME,PRIMARY AUTO,SFC_OBS,1
828,SECA,ICAO,CATAMAYO/CAMILO PONCE ENRIQUEZ ARPT,METAR,-4.0,-79.3666666,UNAVAILABLE,DATA LIMITED,PART TIME,UNKNOWN,SFC_OBS,1
829,LICC,ICAO,CATANIA FONTANAROSSA,METAR,37.466781,15.0664,JMCLIM,DATA AVAILABLE,FULL TIME,UNKNOWN,SFC_OBS,1
830,SARI,ICAO,CATARATAS DEL IGUAZU,METAR,-25.737281,-54.47344399999999,JMCLIM,DATA AVAILABLE,FULL TIME,UNKNOWN,SFC_OBS,1
831,SBFI,ICAO,CATARATAS INTL,METAR,-25.59615,-54.48720600000001,JMCLIM,DATA AVAILABLE,FULL TIME,UNKNOWN,SFC_OBS,1
832,KOLE,ICAO,CATTARAUGUS CO OLEAN,METAR,42.24125,-78.37138900000001,UNAVAILABLE,DATA AVAILABLE,FULL TIME,PRIMARY AUTO,SFC_OBS,1
833,FNCT,ICAO,CATUMBELA ARPT,METAR,-12.483333300000002,13.483333300000002,UNAVAILABLE,DATA LIMITED,PART TIME,UNKNOWN,SFC_OBS,1
834,LFMV,ICAO,CAUMONT,METAR,43.9073,4.901831,LEGACY_OCDS,DATA AVAILABLE,FULL TIME,PRIMARY AUTO,SFC_OBS,1
835,K2C8,ICAO,CAVALIER MUNI,METAR,48.783839,-97.631931,UNAVAILABLE,DATA AVAILABLE,FULL TIME,PRIMARY AUTO,SFC_OBS,1
836,KCNM,ICAO,CAVERN CITY AIR TERMINAL,METAR,32.337472,-104.263278,JMCLIM,DATA AVAILABLE,FULL TIME,PRIMARY AUTO,SFC_OBS,1
837,LFBC,ICAO,CAZAUX,METAR,44.533333,-1.125,LEGACY_OCDS,DATA AVAILABLE,FULL TIME,PRIMARY AUTO,SFC_OBS,1
838,KCDC,ICAO,CEDAR CITY RGNL,METAR,37.700967,-113.098847,JMCLIM,DATA AVAILABLE,FULL TIME,PRIMARY AUTO,SFC_OBS,1
839,YCDU,ICAO,CEDUNA,METAR,-32.130556,133.709722,UNAVAILABLE,DATA LIMITED,FULL TIME,PRIMARY AUTO,SFC_OBS,1
840,MHGS,ICAO,CELAQUE ARPT,METAR,14.5735,-88.5958,UNAVAILABLE,DATA INCOMPLETE,PART TIME,UNKNOWN,SFC_OBS,1
841,ETHC,ICAO,CELLE,METAR,52.5912,10.022133,LEGACY_OCDS,DATA AVAILABLE,FULL TIME,UNKNOWN,SFC_OBS,1
842,KAPA,ICAO,CENTENNIAL,METAR,39.570129,-104.849294,LEGACY_OCDS,DATA AVAILABLE,FULL TIME,UNKNOWN,SFC_OBS,1
843,KF17,ICAO,CENTER MUNI,METAR,31.831583,-94.156417,UNAVAILABLE,DATA AVAILABLE,FULL TIME,PRIMARY AUTO,SFC_OBS,1
844,KTVK,ICAO,CENTERVILLE MUNI,METAR,40.683903,-92.901033,LIMCLIM,DATA AVAILABLE,FULL TIME,PRIMARY AUTO,SFC_OBS,1
845,KAEJ,ICAO,CENTRAL COLORADO RGNL,METAR,38.816666600000005,-106.1166666,UNAVAILABLE,DATA AVAILABLE,FULL TIME,PRIMARY AUTO,SFC_OBS,1
846,KBMI,ICAO,CENTRAL ILLINOIS RGNL,METAR,40.477111,-88.91591700000001,LEGACY_OCDS,DATA AVAILABLE,FULL TIME,UNKNOWN,SFC_OBS,1
847,KRGA,ICAO,CENTRAL KENTUCKY RGNL ARPT,METAR,37.6333333,-84.33333329999999,UNAVAILABLE,DATA AVAILABLE,FULL TIME,PRIMARY AUTO,SFC_OBS,1
848,KGRI,ICAO,CENTRAL NEBRASKA RGNL,METAR,40.967542,-98.309639,JMCLIM,DATA AVAILABLE,FULL TIME,UNKNOWN,SFC_OBS,1
849,KCWA,ICAO,CENTRAL WISCONSIN,METAR,44.777619,-89.666781,LEGACY_OCDS,DATA AVAILABLE,FULL TIME,PRIMARY AUTO,SFC_OBS,1
850,KENL,ICAO,CENTRALIA MUNI,METAR,38.515092,-89.09113599999999,LEGACY_OCDS,DATA AVAILABLE,FULL TIME,PRIMARY AUTO,SFC_OBS,1
851,LJCE,ICAO,CERKLJE,METAR,45.899971,15.530194,JMCLIM,DATA AVAILABLE,FULL TIME,PRIMARY AUTO,SFC_OBS,1
852,SCFA,ICAO,CERRO MORENO INTL,METAR,-23.444478,-70.4451,JMCLIM,DATA AVAILABLE,FULL TIME,UNKNOWN,SFC_OBS,1
853,LIPC,ICAO,CERVIA,METAR,44.224175,12.307203,LEGACY_OCDS,DATA AVAILABLE,FULL TIME,UNKNOWN,SFC_OBS,1
854,LFLU,ICAO,CHABEUIL,METAR,44.921594,4.9699,UNAVAILABLE,DATA AVAILABLE,FULL TIME,PRIMARY AUTO,SFC_OBS,1
855,SCAR,ICAO,CHACALLUTA,METAR,-18.348514,-70.33875,JMCLIM,DATA AVAILABLE,FULL TIME,UNKNOWN,SFC_OBS,1
856,SPPY,ICAO,CHACHAPOYAS,METAR,-6.201806,-77.856064,LEGACY_OCDS,NEW SITE,PART TIME,UNKNOWN,SFC_OBS,1
857,SEAM,ICAO,CHACHOAN,METAR,-1.212067,-78.574636,LEGACY_OCDS,DATA LIMITED,PART TIME,UNKNOWN,SFC_OBS,1
858,KCDR,ICAO,CHADRON MUNI,METAR,42.837556,-103.095417,JMCLIM,DATA AVAILABLE,FULL TIME,PRIMARY AUTO,SFC_OBS,1
859,SBBT,ICAO,CHAFEI AMSEI,METAR,-20.584547,-48.594086,UNAVAILABLE,DATA LIMITED,PART TIME,UNKNOWN,SFC_OBS,1
860,OIZC,ICAO,CHAH BAHAR,METAR,25.443333,60.382111,MINCLIM,NEW SITE,PART TIME,UNKNOWN,SFC_OBS,1
861,SCTN,ICAO,CHAITEN,METAR,-42.932808,-72.699114,UNAVAILABLE,DATA LIMITED,FULL TIME,PRIMARY AUTO,SFC_OBS,1
862,KLLJ,ICAO,CHALLIS,METAR,44.522978,-114.217564,UNAVAILABLE,DATA AVAILABLE,FULL TIME,PRIMARY AUTO,SFC_OBS,1
863,K9V9,ICAO,CHAMBERLAIN MUNI,METAR,43.766122,-99.321339,LEGACY_OCDS,DATA AVAILABLE,FULL TIME,PRIMARY AUTO,SFC_OBS,1
864,MGCP,ICAO,CHAMPERICO,METAR,14.3,-91.9,UNAVAILABLE,DATA INCOMPLETE,PART TIME,UNKNOWN,SFC_OBS,1
865,KYKN,ICAO,CHAN GURNEY MUNI,METAR,42.916694,-97.385944,JMCLIM,DATA AVAILABLE,FULL TIME,PRIMARY AUTO,SFC_OBS,1
866,VICG,ICAO,CHANDIGARH,METAR,30.673469,76.788542,UNAVAILABLE,DATA LIMITED,PART TIME,UNKNOWN,SFC_OBS,1
867,KAXN,ICAO,CHANDLER FLD,METAR,45.866297,-95.394669,LEGACY_OCDS,DATA AVAILABLE,FULL TIME,PRIMARY AUTO,SFC_OBS,1
868,KCHD,ICAO,CHANDLER MUNI,METAR,33.269093,-111.811114,UNAVAILABLE,DATA LIMITED,PART TIME,UNKNOWN,SFC_OBS,1
869,KCQB,ICAO,CHANDLER RGNL,METAR,35.723816,-96.820272,LEGACY_OCDS,DATA AVAILABLE,FULL TIME,PRIMARY AUTO,SFC_OBS,1
870,ZSFZ,ICAO,CHANGLE,METAR,25.935064,119.663272,JMCLIM,DATA AVAILABLE,FULL TIME,UNKNOWN,SFC_OBS,1
871,KCNU,ICAO,CHANUTE MARTIN JOHNSON,METAR,37.668797,-95.485064,JMCLIM,DATA AVAILABLE,FULL TIME,PRIMARY AUTO,SFC_OBS,1
872,SBLE,ICAO,CHAPADA DIAMANTINA,METAR,-12.482289,-41.276969,UNAVAILABLE,DATA LIMITED,PART TIME,UNKNOWN,SFC_OBS,1
873,CYMT,ICAO,CHAPAIS,METAR,49.771944,-74.528056,JMCLIM,DATA AVAILABLE,FULL TIME,PRIMARY AUTO,SFC_OBS,1
874,CYLD,ICAO,CHAPLEAU,METAR,47.82,-83.34666700000001,LEGACY_OCDS,DATA LIMITED,PART TIME,UNKNOWN,SFC_OBS,1
875,UTAV,ICAO,CHARDZHEZ/TURKMENABAT,METAR,39.0833333,63.6166666,UNAVAILABLE,DATA LIMITED,FULL TIME,UNKNOWN,SFC_OBS,1
876,KCNC,ICAO,CHARITON MUNI,METAR,41.019625,-93.35968,LEGACY_OCDS,DATA AVAILABLE,FULL TIME,PRIMARY AUTO,SFC_OBS,1
877,KMKC,ICAO,CHARLES B WHEELER DOWNTOWN,METAR,39.12325,-94.59275,LEGACY_OCDS,DATA AVAILABLE,FULL TIME,UNKNOWN,SFC_OBS,1
878,KCCY,ICAO,CHARLES CITY MUNI,METAR,43.072609,-92.610779,LEGACY_OCDS,DATA AVAILABLE,FULL TIME,PRIMARY AUTO,SFC_OBS,1
879,LFPG,ICAO,CHARLES DE GAULLE,METAR,49.012779,2.55,JMCLIM,DATA AVAILABLE,FULL TIME,UNKNOWN,SFC_OBS,1
880,KSTS,ICAO,CHARLES M SCHULZ SONOMA CO,METAR,38.508978000000006,-122.81288,LEGACY_OCDS,DATA AVAILABLE,FULL TIME,UNKNOWN,SFC_OBS,1
881,KCHS,ICAO,CHARLESTON AFB INTL,METAR,32.898647,-80.04052800000001,JMCLIM,DATA AVAILABLE,FULL TIME,UNKNOWN,SFC_OBS,1
882,KJZI,ICAO,CHARLESTON EXECUTIVE,METAR,32.700861,-80.00291700000001,UNAVAILABLE,DATA AVAILABLE,FULL TIME,PRIMARY AUTO,SFC_OBS,1
883,YBCV,ICAO,CHARLEVILLE,METAR,-26.413334000000003,146.2625,LEGACY_OCDS,DATA AVAILABLE,FULL TIME,PRIMARY AUTO,SFC_OBS,1
884,CWIS,ICAO,CHARLEVOIX (MRX),METAR,47.2833333,-70.6333333,UNAVAILABLE,DATA INCOMPLETE,FULL TIME,UNKNOWN,SFC_OBS,1
885,KCVX,ICAO,CHARLEVOIX MUNI,METAR,45.304779,-85.27478,JMCLIM,DATA AVAILABLE,FULL TIME,PRIMARY AUTO,SFC_OBS,1
886,KPGD,ICAO,CHARLOTTE CO,METAR,26.920195,-81.990514,LEGACY_OCDS,DATA AVAILABLE,FULL TIME,UNKNOWN,SFC_OBS,1
887,KCLT,ICAO,CHARLOTTE DOUGLAS INTL,METAR,35.214011,-80.943125,JMCLIM,DATA AVAILABLE,FULL TIME,UNKNOWN,SFC_OBS,1
888,KCHO,ICAO,CHARLOTTESVILLE ALBEMARLE,METAR,38.138639000000005,-78.452861,JMCLIM,DATA AVAILABLE,FULL TIME,UNKNOWN,SFC_OBS,1
889,CYYG,ICAO,CHARLOTTETOWN,METAR,46.2833333,-63.1333333,LEGACY_OCDS,DATA AVAILABLE,FULL TIME,UNKNOWN,SFC_OBS,1
890,KCXE,ICAO,CHASE CITY MUNI,METAR,36.788336,-78.501553,UNAVAILABLE,DATA AVAILABLE,FULL TIME,PRIMARY AUTO,SFC_OBS,1
891,LFBG,ICAO,CHATEAUBERNARD,METAR,45.658333,-0.3175,JMCLIM,DATA AVAILABLE,FULL TIME,PRIMARY AUTO,SFC_OBS,1
892,LFOC,ICAO,CHATEAUDUN,METAR,48.058142,1.376625,LEGACY_OCDS,DATA AVAILABLE,FULL TIME,PRIMARY AUTO,SFC_OBS,1
893,CYCK,ICAO,CHATHAM (KENT AIRPORT),METAR,42.3,-82.08333329999999,UNAVAILABLE,DATA AVAILABLE,FULL TIME,PRIMARY AUTO,SFC_OBS,1
894,KCQX,ICAO,CHATHAM MUNI,METAR,41.6884,-69.989522,UNAVAILABLE,DATA AVAILABLE,FULL TIME,PRIMARY AUTO,SFC_OBS,1
895,KDKK,ICAO,CHAUTAUQUA CO DUNKIRK,METAR,42.493336,-79.272041,UNAVAILABLE,DATA AVAILABLE,FULL TIME,PRIMARY AUTO,SFC_OBS,1
896,KJHW,ICAO,CHAUTAUQUA CO JAMESTOWN,METAR,42.153389,-79.258036,JMCLIM,DATA AVAILABLE,FULL TIME,PRIMARY AUTO,SFC_OBS,1
897,UWKS,ICAO,CHEBOKSARY,METAR,56.09026899999999,47.34725,JMCLIM,DATA AVAILABLE,FULL TIME,UNKNOWN,SFC_OBS,1
898,KSLH,ICAO,CHEBOYGAN CO,METAR,45.653711,-84.519272,JMCLIM,DATA AVAILABLE,FULL TIME,PRIMARY AUTO,SFC_OBS,1
